Date,Time,UpTime,Fix,Satellites,Latitude,Longitude,Elevation,Yaw,Pitch,Roll,GyroX,GyroY,GyroZ,AccelX,AccelY,AccelZ,MagX,MagY,MagZ
00/00/2000,0:00:00,0:00:00,0,0,, ,,4.73,5.56,14.19,0,-0.05,0,-0.19,0.83,9.9,-25.74,32.26,-124.6
00/00/2000,0:00:00,0:00:01,0,0,, ,,5.47,6.45,16.2,0,-0.04,0,-0.23,0.81,9.89,-26.54,32.51,-124.04
00/00/2000,0:00:00,0:00:01,0,0,, ,,6.06,7.09,17.76,0,-0.05,0,-0.18,0.82,9.86,-25.87,32.23,-124.66
00/00/2000,0:00:00,0:00:01,0,0,, ,,6.66,7.76,19.48,0.03,-0.04,-0.01,-0.24,1.04,9.76,-25.43,32.75,-124.26
00/00/2000,0:00:00,0:00:01,0,0,, ,,7.28,8.31,20.88,0,-0.05,0,-0.2,0.82,9.94,-25.46,32.68,-125.42
00/00/2000,0:00:00,0:00:01,0,0,, ,,7.94,8.87,22.31,0,-0.05,0,-0.22,0.81,9.93,-25.71,32.94,-124.71
00/00/2000,0:00:00,0:00:01,0,0,, ,,8.63,9.41,23.72,0,-0.05,0,-0.22,0.8,9.92,-26.05,32.48,-125.67
00/00/2000,0:00:00,0:00:02,0,0,, ,,9.81,10.26,25.99,0,-0.05,0,-0.22,0.81,9.93,-25.87,32.39,-124.79
00/00/2000,0:00:00,0:00:02,0,0,, ,,10.66,10.78,27.46,0,-0.04,0,-0.19,0.82,9.95,-25.84,32.53,-125.45
00/00/2000,0:00:00,0:00:02,0,0,, ,,11.54,11.29,28.89,0,-0.04,0,-0.24,0.81,9.9,-25.91,32.52,-125.43
00/00/2000,0:00:00,0:00:02,0,0,, ,,12.43,11.77,30.29,0,-0.04,0,-0.23,0.8,9.89,-26.05,33.09,-125.05
00/00/2000,0:00:00,0:00:02,0,0,, ,,13.39,12.2,31.7,0,-0.04,0,-0.23,0.81,9.92,-26.32,32.26,-125.2
00/00/2000,0:00:00,0:00:02,0,0,, ,,14.36,12.58,33.08,0,-0.05,0,-0.21,0.82,9.94,-25.59,32.42,-125.27
00/00/2000,0:00:00,0:00:03,0,0,, ,,15.97,13.13,35.25,0,-0.04,0,-0.21,0.82,9.94,-25.39,32.2,-125.01
00/00/2000,0:00:00,0:00:03,0,0,, ,,17.09,13.41,36.64,0,-0.05,0,-0.2,0.83,9.96,-25.37,32.1,-124.86
00/00/2000,0:00:00,0:00:03,0,0,, ,,18.23,13.66,37.95,0,-0.04,0,-0.23,0.81,9.91,-25.84,32.49,-125.04
00/00/2000,0:00:00,0:00:03,0,0,, ,,19.42,13.84,39.24,0,-0.04,0,-0.22,0.81,9.91,-25.45,32.07,-125.84
00/00/2000,0:00:00,0:00:03,0,0,, ,,20.62,13.98,40.48,0,-0.04,0,-0.22,0.82,9.93,-25.49,32.17,-125.29
00/00/2000,0:00:00,0:00:03,0,0,, ,,21.88,14.04,41.69,0,-0.04,0,-0.2,0.82,9.94,-25.29,32.48,-125.08
00/00/2000,0:00:00,0:00:04,0,0,, ,,23.91,14.03,43.54,0,-0.05,0,-0.21,0.82,9.96,-25.81,32.01,-125.5
00/00/2000,0:00:00,0:00:04,0,0,, ,,25.29,13.94,44.64,0,-0.04,0,-0.23,0.8,9.93,-25.48,32.64,-125.93
00/00/2000,0:00:00,0:00:04,0,0,, ,,26.7,13.79,45.67,0,-0.04,0,-0.24,0.8,9.92,-25.84,32.23,-125.91
00/00/2000,0:00:00,0:00:04,0,0,, ,,28.09,13.57,46.61,0,-0.04,0,-0.23,0.81,9.91,-25.9,32.27,-126.15
00/00/2000,0:00:00,0:00:04,0,0,, ,,29.51,13.28,47.5,0,-0.04,0,-0.22,0.81,9.91,-25.75,32.21,-125.05
00/00/2000,0:00:00,0:00:04,0,0,, ,,30.92,12.89,48.32,0.01,-0.04,0,-0.2,0.83,9.9,-25.96,32.56,-125.62
00/00/2000,0:00:00,0:00:05,0,0,, ,,33.13,12.16,49.3,-0.01,-0.05,0,-0.1,0.64,9.89,-23.49,28.85,-126.21
00/00/2000,0:00:00,0:00:05,0,0,, ,,34.65,11.98,50.22,0.01,-0.04,0,-0.33,0.81,9.91,-19.41,22.33,-123.18
00/00/2000,0:00:00,0:00:05,0,0,, ,,36.1,11.66,51.01,0,-0.04,0,-0.24,0.79,9.93,-18.56,19.79,-121.44
00/00/2000,0:00:00,0:00:05,0,0,, ,,37.55,11.23,51.7,0,-0.05,0,-0.2,0.78,9.91,-18.59,18.88,-120.67
00/00/2000,0:00:00,0:00:05,0,0,, ,,39.03,10.78,52.37,0.01,-0.04,0,-0.25,0.86,9.93,-18.43,18.68,-121
00/00/2000,0:00:00,0:00:05,0,0,, ,,40.39,10.08,52.98,0.02,-0.05,0,-0.1,0.9,9.89,-18.55,18.69,-120.83
00/00/2000,0:00:00,0:00:06,0,0,, ,,42.6,8.9,53.08,0,-0.04,0,-0.26,0.89,9.96,-21.66,26.45,-124.86
00/00/2000,0:00:00,0:00:06,0,0,, ,,43.92,8.09,52.88,0,-0.04,0,-0.22,0.8,9.96,-24.19,29.92,-125.26
00/00/2000,0:00:00,0:00:06,0,0,, ,,45.1,7.34,52.42,-0.01,-0.05,0,-0.24,0.76,9.94,-25.42,31.92,-124.89
00/00/2000,0:00:00,0:00:06,0,0,, ,,46.3,6.76,52.24,0,-0.04,0,-0.2,0.8,9.92,-25.36,32.15,-123.95
00/00/2000,0:00:00,0:00:06,0,0,, ,,47.45,6.25,52.11,0.01,-0.04,0,-0.21,0.8,9.98,-25.49,32.51,-125.34
00/00/2000,0:00:00,0:00:06,0,0,, ,,48.58,5.96,52.04,0.02,-0.03,0,-0.26,0.75,9.96,-25.81,32.24,-124.85
00/00/2000,0:00:00,0:00:07,0,0,, ,,50.11,5.25,51.63,0,-0.05,0,-0.22,0.79,9.96,-26.28,32.45,-124.92
00/00/2000,0:00:00,0:00:07,0,0,, ,,50.96,4.96,51.41,0,-0.05,0,-0.21,0.77,9.94,-25.94,32.7,-124.45
00/00/2000,0:00:00,0:00:07,0,0,, ,,51.7,4.73,51.32,0,-0.04,0,-0.22,0.85,9.95,-25.91,32.61,-124.88
00/00/2000,0:00:00,0:00:07,0,0,, ,,52.38,4.55,51.24,0,-0.04,0,-0.21,0.82,9.96,-25.86,32.02,-124.79
00/00/2000,0:00:00,0:00:07,0,0,, ,,52.96,4.32,51.11,0,-0.05,0,-0.18,0.82,9.96,-25.74,32.67,-124.99
00/00/2000,0:00:00,0:00:07,0,0,, ,,53.48,4.26,50.96,0,-0.04,0,-0.24,0.79,9.92,-25.36,32.52,-124.39
00/00/2000,0:00:00,0:00:08,0,0,, ,,54.17,4.13,50.8,0,-0.04,0,-0.22,0.8,9.92,-25.75,32.33,-125.1
00/00/2000,0:00:00,0:00:08,0,0,, ,,54.52,4.04,50.72,0,-0.04,0,-0.21,0.82,9.93,-25.68,32.4,-125.11
00/00/2000,0:00:00,0:00:08,0,0,, ,,54.8,3.97,50.67,0,-0.05,0,-0.21,0.83,9.94,-25.62,32.3,-125.64
00/00/2000,0:00:00,0:00:08,0,0,, ,,55.03,3.9,50.6,0,-0.05,0,-0.2,0.82,9.97,-26.12,32.36,-125.58
00/00/2000,0:00:00,0:00:08,0,0,, ,,55.24,3.85,50.52,0,-0.04,0,-0.21,0.81,9.94,-25.96,32.49,-124.77
00/00/2000,0:00:00,0:00:08,0,0,, ,,55.4,3.89,50.48,0,-0.04,0,-0.22,0.8,9.92,-25.36,31.91,-124.85
00/00/2000,0:00:00,0:00:09,0,0,, ,,55.6,3.84,50.42,0,-0.05,0,-0.2,0.81,9.95,-25.08,32.27,-125.67
00/00/2000,0:00:00,0:00:09,0,0,, ,,55.71,3.73,50.34,0,-0.05,0,-0.19,0.83,9.97,-25.33,32.96,-124.98
00/00/2000,0:00:00,0:00:09,0,0,, ,,55.79,3.72,50.34,0,-0.05,0,-0.19,0.82,9.97,-25.61,32.39,-125.27
00/00/2000,0:00:00,0:00:09,0,0,, ,,55.87,3.74,50.36,0,-0.05,0,-0.21,0.82,9.97,-25.56,32.23,-126.05
00/00/2000,0:00:00,0:00:09,0,0,, ,,55.93,3.76,50.32,0,-0.04,0,-0.22,0.81,9.93,-25.45,32.4,-125.49
00/00/2000,0:00:00,0:00:09,0,0,, ,,55.98,3.76,50.33,0,-0.05,0,-0.2,0.81,9.95,-25.48,31.96,-125.56
00/00/2000,0:00:00,0:00:10,0,0,, ,,54.86,3.39,46.41,-0.19,-0.11,0,-0.15,0.36,10.38,-25.5,32.64,-125.43
00/00/2000,0:00:00,0:00:10,0,0,, ,,54.97,3.83,47.66,0.02,-0.03,0,-0.1,1.01,9.92,-25.64,31.77,-126.1
00/00/2000,0:00:00,0:00:10,0,0,, ,,54.87,4.15,48.26,-0.02,-0.05,0,-0.1,0.67,9.9,-25.49,32.01,-125.53
00/00/2000,0:00:00,0:00:10,0,0,, ,,54.94,4.4,48.9,0,-0.04,0,-0.25,0.86,9.94,-25.81,32.74,-125.68
00/00/2000,0:00:00,0:00:10,0,0,, ,,55,4.58,49.37,0,-0.04,0,-0.24,0.77,9.92,-25.24,32.45,-125.84
00/00/2000,0:00:00,0:00:10,0,0,, ,,55.04,4.54,49.65,0,-0.05,0,-0.21,0.79,9.93,-25.18,32.62,-126.45
00/00/2000,0:00:00,0:00:11,0,0,, ,,55.11,4.33,49.84,0,-0.05,0,-0.17,0.77,9.96,-25.37,33.06,-126.66
00/00/2000,0:00:00,0:00:11,0,0,, ,,55.2,4.28,49.97,0,-0.05,0,-0.2,0.81,9.95,-24.86,32.8,-126.41
00/00/2000,0:00:00,0:00:11,0,0,, ,,55.31,4.27,50.07,0,-0.04,0,-0.23,0.81,9.94,-25.21,32.74,-126.85
00/00/2000,0:00:00,0:00:11,0,0,, ,,55.39,4.22,50.13,0,-0.04,0,-0.21,0.79,9.91,-24.76,32.46,-126.41
00/00/2000,0:00:00,0:00:11,0,0,, ,,55.46,4.13,50.2,0,-0.05,0,-0.19,0.82,9.98,-24.8,32.52,-127.26
00/00/2000,0:00:00,0:00:11,0,0,, ,,55.54,4.06,50.24,0,-0.05,0,-0.2,0.81,9.98,-25.5,32.3,-126.45
00/00/2000,0:00:00,0:00:12,0,0,, ,,55.67,4.09,50.31,0,-0.04,0,-0.23,0.8,9.92,-25.39,31.92,-126.38
00/00/2000,0:00:00,0:00:12,0,0,, ,,55.73,4.02,50.29,0,-0.05,0,-0.21,0.81,9.96,-25.21,32.33,-126.98
00/00/2000,0:00:00,0:00:12,0,0,, ,,55.77,3.98,50.29,0,-0.05,0,-0.21,0.81,9.95,-25.07,32.36,-126.81
00/00/2000,0:00:00,0:00:12,0,0,, ,,55.82,3.89,50.29,0,-0.05,0,-0.19,0.8,9.95,-25.75,32.08,-126.07
00/00/2000,0:00:00,0:00:12,0,0,, ,,55.86,3.86,50.27,0,-0.05,0,-0.19,0.81,9.96,-25.31,32.34,-127.01
00/00/2000,0:00:00,0:00:12,0,0,, ,,55.92,3.9,50.25,0,-0.04,0,-0.24,0.81,9.91,-25.27,32.65,-126.5
00/00/2000,0:00:00,0:00:13,0,0,, ,,56,3.92,50.24,0,-0.04,0,-0.23,0.81,9.9,-25.65,32.34,-125.24
00/00/2000,0:00:00,0:00:13,0,0,, ,,56.02,3.9,50.22,0,-0.04,0,-0.22,0.79,9.91,-25.56,32.43,-126.05
00/00/2000,0:00:00,0:00:13,0,0,, ,,56.02,3.88,50.22,0,-0.05,0,-0.21,0.81,9.92,-24.99,32.24,-125.65
00/00/2000,0:00:00,0:00:13,0,0,, ,,56.02,3.81,50.18,0,-0.05,0,-0.2,0.8,9.94,-25.72,32.45,-125.18
00/00/2000,0:00:00,0:00:13,0,0,, ,,56.07,3.73,50.4,0.02,-0.04,0,-0.16,0.88,9.94,-25.8,32.23,-126.13
00/00/2000,0:00:00,0:00:13,0,0,, ,,56.12,3.76,50.36,0.01,-0.04,0,-0.23,0.79,9.91,-25.72,32.11,-124.85
00/00/2000,0:00:00,0:00:14,0,0,, ,,56.12,3.74,50.24,0,-0.05,0,-0.21,0.79,9.95,-25.49,32.21,-124.7
00/00/2000,0:00:00,0:00:14,0,0,, ,,56.13,3.81,50.26,0,-0.05,0,-0.24,0.81,9.96,-25.15,31.66,-124.17
00/00/2000,0:00:00,0:00:14,0,0,, ,,56.12,3.73,50.22,0,-0.05,0,-0.16,0.78,9.96,-26.03,31.96,-124.92
00/00/2000,0:00:00,0:00:14,0,0,, ,,56.2,3.74,50.29,0.01,-0.04,0,-0.18,0.81,9.97,-25.77,32.51,-125.11
00/00/2000,0:00:00,0:00:14,0,0,, ,,56.31,3.8,50.6,0.03,-0.04,-0.01,-0.28,0.94,9.87,-26.09,32.24,-124.52
00/00/2000,0:00:00,0:00:14,0,0,, ,,56.31,3.63,50.49,0.01,-0.05,0,-0.2,0.84,9.95,-26.47,32.53,-125.04
00/00/2000,0:00:00,0:00:15,0,0,, ,,56.39,3.49,50.39,0,-0.04,0,-0.17,0.85,9.95,-26.06,32.17,-124.95
00/00/2000,0:00:00,0:00:15,0,0,, ,,56.37,3.41,50.28,0,-0.05,0,-0.15,0.8,9.97,-26.02,32.68,-124.83
00/00/2000,0:00:00,0:00:15,0,0,, ,,56.45,3.89,50.18,0,-0.03,0,-0.42,0.77,9.88,-25.67,32.3,-124.79
00/00/2000,0:00:00,0:00:15,0,0,, ,,56.44,3.92,50.13,0,-0.04,0,-0.25,0.79,9.92,-26.47,32.05,-124.79
00/00/2000,0:00:00,0:00:15,0,0,, ,,56.39,3.8,50.15,0.01,-0.04,0,-0.18,0.81,9.92,-26.1,32.29,-124.51
00/00/2000,0:00:00,0:00:15,0,0,, ,,56.34,3.77,50.15,0,-0.05,0,-0.2,0.8,9.98,-26.02,31.75,-124.23
00/00/2000,0:00:00,0:00:16,0,0,, ,,56.29,3.75,50.18,0,-0.05,0,-0.2,0.81,9.96,-25.74,31.64,-123.98
00/00/2000,0:00:00,0:00:16,0,0,, ,,56.28,3.8,50.22,0,-0.04,0,-0.23,0.79,9.9,-26.32,31.7,-124.98
00/00/2000,0:00:00,0:00:16,0,0,, ,,56.24,3.73,50.15,0,-0.05,0,-0.19,0.79,9.93,-26.15,32.24,-124.63
00/00/2000,0:00:00,0:00:16,0,0,, ,,56.24,3.7,50.14,0,-0.04,0,-0.2,0.82,9.98,-26.16,32.49,-124.35
00/00/2000,0:00:00,0:00:16,0,0,, ,,56.23,3.64,50.13,0,-0.05,0,-0.18,0.81,9.99,-25.81,32.34,-123.94
00/00/2000,0:00:00,0:00:16,0,0,, ,,56.24,3.64,50.15,0,-0.05,0,-0.2,0.81,10.01,-26.25,32.24,-124.39
00/00/2000,0:00:00,0:00:17,0,0,, ,,56.27,3.79,50.22,0.01,-0.04,0,-0.23,0.81,9.94,-26,32.15,-123.87
00/00/2000,0:00:00,0:00:17,0,0,, ,,56.3,3.9,50.2,0,-0.04,0,-0.29,0.83,10,-25.34,32.07,-123.46
00/00/2000,0:00:00,0:00:17,0,0,, ,,56.27,3.84,50.17,0,-0.04,0,-0.21,0.81,9.95,-26.12,31.88,-124.25
00/00/2000,0:00:00,0:00:17,0,0,, ,,56.26,3.74,50.19,0,-0.05,0,-0.18,0.82,9.98,-25.88,31.94,-124.06
00/00/2000,0:00:00,0:00:17,0,0,, ,,56.26,3.77,50.17,0,-0.04,0,-0.23,0.79,9.94,-26.21,32.33,-124.45
00/00/2000,0:00:00,0:00:17,0,0,, ,,56.26,3.76,50.13,0,-0.04,0,-0.22,0.79,9.92,-26.12,32.32,-123.63
00/00/2000,0:00:00,0:00:18,0,0,, ,,56.25,3.81,50.17,0,-0.04,0,-0.23,0.79,9.93,-26.59,32.1,-123.98
00/00/2000,0:00:00,0:00:18,0,0,, ,,56.26,3.82,50.15,0,-0.04,0,-0.23,0.81,9.92,-25.5,32.08,-123.15
00/00/2000,0:00:00,0:00:18,0,0,, ,,56.24,3.74,50.14,0,-0.05,0,-0.2,0.8,9.98,-26.37,32.21,-123.97
00/00/2000,0:00:00,0:00:18,0,0,, ,,56.25,3.72,50.14,0,-0.04,0,-0.2,0.81,9.96,-26.03,32.01,-122.77
00/00/2000,0:00:00,0:00:18,0,0,, ,,56.26,3.71,50.12,0,-0.04,0,-0.21,0.8,9.94,-26.02,32.2,-123.06
00/00/2000,0:00:00,0:00:18,0,0,, ,,56.26,3.69,50.17,0,-0.04,0,-0.19,0.82,9.97,-26.34,31.86,-123.49
00/00/2000,0:00:00,0:00:19,0,0,, ,,56.28,3.7,50.24,0,-0.04,0,-0.2,0.82,9.97,-25.5,31.89,-124.26
00/00/2000,0:00:00,0:00:19,0,0,, ,,56.27,3.65,50.23,0,-0.05,0,-0.19,0.82,9.99,-25.72,32.11,-124.28
00/00/2000,0:00:00,0:00:19,0,0,, ,,56.27,3.63,50.23,0,-0.05,0,-0.19,0.81,9.99,-25.88,31.79,-123.55
00/00/2000,0:00:00,0:00:19,0,0,, ,,56.28,3.69,50.23,0,-0.04,0,-0.22,0.8,9.92,-25.97,31.92,-123.91
00/00/2000,0:00:00,0:00:19,0,0,, ,,56.3,3.71,50.25,0,-0.04,0,-0.22,0.81,9.93,-26.1,31.72,-124.14
00/00/2000,0:00:00,0:00:19,0,0,, ,,56.32,3.7,50.24,0,-0.04,0,-0.21,0.81,9.95,-26.56,32.18,-124.93
00/00/2000,0:00:00,0:00:20,0,0,, ,,56.3,3.68,50.2,0,-0.04,0,-0.2,0.81,9.97,-25.72,32.18,-124.9
00/00/2000,0:00:00,0:00:20,0,0,, ,,56.3,3.69,50.15,0,-0.04,0,-0.21,0.79,9.95,-26.02,32.36,-124.04
00/00/2000,0:00:00,0:00:20,0,0,, ,,56.27,3.71,50.14,0,-0.05,0,-0.21,0.79,9.93,-25.99,32.17,-124.07
00/00/2000,0:00:00,0:00:20,0,0,, ,,56.27,3.77,50.13,0,-0.04,0,-0.23,0.79,9.91,-25.91,32.1,-124.35
00/00/2000,0:00:00,0:00:20,0,0,, ,,56.28,3.71,50.08,0,-0.04,0,-0.2,0.84,10,-26.09,32.2,-124.01
00/00/2000,0:00:00,0:00:20,0,0,, ,,56.28,3.75,50.09,0,-0.04,0,-0.21,0.8,9.97,-25.9,32.18,-124.48
00/00/2000,0:00:00,0:00:21,0,0,, ,,56.19,3.65,50.16,0.01,-0.05,0,-0.18,0.79,9.91,-25.93,32.27,-124.69
00/00/2000,0:00:00,0:00:21,0,0,, ,,56.19,3.67,50.11,0,-0.04,0,-0.22,0.8,9.96,-25.74,33.05,-124.55
00/00/2000,0:00:00,0:00:21,0,0,, ,,56.21,3.72,50.12,0,-0.04,0,-0.22,0.79,9.93,-26.05,32.3,-124.04
00/00/2000,0:00:00,0:00:21,0,0,, ,,56.2,3.69,50.15,0,-0.05,0,-0.19,0.82,9.98,-25.83,32.29,-124.12
00/00/2000,0:00:00,0:00:21,0,0,, ,,56.21,3.67,50.22,0,-0.05,0,-0.18,0.82,9.99,-26,31.76,-124.82
00/00/2000,0:00:00,0:00:21,0,0,, ,,56.21,3.76,50.22,0,-0.04,0,-0.24,0.79,9.93,-25.65,32.04,-124.28
00/00/2000,0:00:00,0:00:22,0,0,, ,,56.22,3.85,50.2,0,-0.04,0,-0.24,0.79,9.92,-26.03,31.83,-124.13
00/00/2000,0:00:00,0:00:22,0,0,, ,,56.22,3.8,50.14,0,-0.04,0,-0.21,0.8,9.93,-25.9,32.4,-123.79
00/00/2000,0:00:00,0:00:22,0,0,, ,,56.21,3.81,50.17,0,-0.04,0,-0.22,0.8,9.94,-25.86,31.98,-124.29
00/00/2000,0:00:00,0:00:22,0,0,, ,,56.2,3.83,50.19,0,-0.04,0,-0.22,0.8,9.97,-25.64,31.73,-124.79
00/00/2000,0:00:00,0:00:22,0,0,, ,,56.2,3.83,50.16,0,-0.04,0,-0.22,0.79,9.94,-25.77,32.01,-124
00/00/2000,0:00:00,0:00:22,0,0,, ,,56.18,3.84,50.14,0,-0.04,0,-0.23,0.79,9.94,-25.9,32.1,-124.07
00/00/2000,0:00:00,0:00:23,0,0,, ,,56.15,3.64,50.16,0,-0.05,0,-0.17,0.82,9.98,-26.21,32.08,-123.28
00/00/2000,0:00:00,0:00:23,0,0,, ,,56.18,3.72,50.16,0,-0.04,0,-0.23,0.79,9.91,-26.06,32.29,-124.23
00/00/2000,0:00:00,0:00:23,0,0,, ,,56.18,3.69,50.19,0,-0.05,0,-0.19,0.82,9.98,-25.71,32.17,-124.73
00/00/2000,0:00:00,0:00:23,0,0,, ,,56.17,3.71,50.17,0,-0.05,0,-0.21,0.8,9.97,-25.46,32.11,-123.69
00/00/2000,0:00:00,0:00:23,0,0,, ,,56.17,3.76,50.18,0,-0.05,0,-0.23,0.79,9.95,-25.9,31.89,-123.53
00/00/2000,0:00:00,0:00:23,0,0,, ,,56.16,3.7,50.15,0,-0.05,0,-0.2,0.82,9.96,-25.62,32.58,-123.78
00/00/2000,0:00:00,0:00:24,0,0,, ,,56.17,3.69,50.27,0,-0.05,0,-0.18,0.82,9.98,-25.83,31.48,-124.35
00/00/2000,0:00:00,0:00:24,0,0,, ,,56.19,3.67,50.28,0,-0.05,0,-0.19,0.81,9.98,-25.94,31.94,-124.8
00/00/2000,0:00:00,0:00:24,0,0,, ,,56.16,3.63,50.73,0.04,-0.05,0,-0.22,0.89,10.08,-25.91,31.56,-124.44
00/00/2000,0:00:00,0:00:24,0,0,, ,,56.26,3.62,50.45,-0.02,-0.05,0,-0.28,0.94,9.93,-25.58,31.16,-124.26
00/00/2000,0:00:00,0:00:24,0,0,, ,,56.16,3.57,49.79,-0.06,-0.06,0,-0.23,0.78,9.89,-25.75,31.73,-124.28
00/00/2000,0:00:00,0:00:24,0,0,, ,,56.22,3.57,49.76,-0.04,-0.05,0,-0.25,1.11,9.9,-25.55,31.18,-124.19
00/00/2000,0:00:00,0:00:25,0,0,, ,,56.44,3.98,48.55,-0.11,-0.02,-0.02,-0.18,0.97,9.89,-25.21,31.12,-123.98
00/00/2000,0:00:00,0:00:25,0,0,, ,,56.36,4.15,49.41,0.03,-0.04,0,-0.24,0.96,9.94,-25.39,31.19,-124.32
00/00/2000,0:00:00,0:00:25,0,0,, ,,56.29,4.09,50.72,0.1,-0.06,-0.01,-0.3,1.15,9.89,-25.4,30.85,-124.39
00/00/2000,0:00:00,0:00:25,0,0,, ,,56.43,3.81,50.83,0,-0.04,0,-0.23,1.16,9.92,-25.5,30.47,-124.5
00/00/2000,0:00:00,0:00:25,0,0,, ,,56.52,3.48,51.41,0.04,-0.05,0,-0.19,1.25,9.93,-25.58,29.51,-124.99
00/00/2000,0:00:00,0:00:25,0,0,, ,,56.68,3.15,51.66,0.02,-0.05,0,-0.19,1.28,9.94,-25.86,29.63,-124.85
00/00/2000,0:00:00,0:00:26,0,0,, ,,56.97,2.72,51.8,0.01,-0.05,0,-0.19,1.3,9.95,-26.47,29.38,-123.94
00/00/2000,0:00:00,0:00:26,0,0,, ,,57.08,2.35,52.25,0.04,-0.06,0,-0.16,1.39,9.89,-26.19,29.14,-124.09
00/00/2000,0:00:00,0:00:26,0,0,, ,,57.63,2.26,52,-0.02,-0.01,0,-0.11,1.48,9.98,-25.96,29.17,-124
00/00/2000,0:00:00,0:00:26,0,0,, ,,57.78,2.21,51.87,0,-0.05,0,-0.21,1.28,9.95,-25.34,29.06,-124.45
00/00/2000,0:00:00,0:00:26,0,0,, ,,57.95,2,51.98,0.01,-0.05,0,-0.12,1.43,9.92,-26.13,28.82,-124.48
00/00/2000,0:00:00,0:00:26,0,0,, ,,58.09,1.79,52.24,0.03,-0.05,0,-0.14,1.45,9.89,-26.37,28.95,-123.63
00/00/2000,0:00:00,0:00:27,0,0,, ,,58.55,1.84,51.6,-0.03,-0.03,-0.01,-0.17,1.4,9.89,-26.06,28.94,-124.32
00/00/2000,0:00:00,0:00:27,0,0,, ,,58.71,1.84,51.42,-0.02,-0.04,0,-0.16,1.37,9.89,-25.97,29.19,-125.37
00/00/2000,0:00:00,0:00:27,0,0,, ,,58.72,1.68,51.68,0.01,-0.05,0,-0.11,1.46,9.89,-26.35,29.07,-125.46
00/00/2000,0:00:00,0:00:27,0,0,, ,,58.88,1.62,51.53,-0.03,-0.04,0,-0.1,1.5,9.86,-26.1,28.68,-124.5
00/00/2000,0:00:00,0:00:27,0,0,, ,,59,1.54,51.56,-0.01,-0.04,0,-0.09,1.44,9.91,-26.48,28.92,-124.13
00/00/2000,0:00:00,0:00:27,0,0,, ,,59.06,1.48,51.83,0.02,-0.05,0,-0.12,1.43,9.88,-26.5,28.82,-124.69
00/00/2000,0:00:00,0:00:28,0,0,, ,,59.36,1.23,51.92,0,-0.04,0.01,-0.11,1.48,9.88,-26.28,28.5,-124.63
00/00/2000,0:00:00,0:00:28,0,0,, ,,59.4,1.11,51.96,0,-0.05,0,-0.08,1.48,9.87,-26.24,29.06,-123.62
00/00/2000,0:00:00,0:00:28,0,0,, ,,59.48,1.06,52,0,-0.05,0,-0.08,1.46,9.87,-26.43,28.4,-123.87
00/00/2000,0:00:00,0:00:28,0,0,, ,,59.55,1,52.06,0.01,-0.05,0,-0.09,1.48,9.92,-26.75,28.59,-123.53
00/00/2000,0:00:00,0:00:28,0,0,, ,,59.62,0.92,52.16,0.01,-0.05,0,-0.09,1.53,9.87,-26.19,28.65,-124.03
00/00/2000,0:00:00,0:00:28,0,0,, ,,59.71,0.83,52.05,-0.01,-0.05,0,-0.08,1.51,9.86,-26.48,28.78,-124.13
00/00/2000,0:00:00,0:00:29,0,0,, ,,59.71,0.71,52.72,0.04,-0.05,-0.01,-0.07,1.57,9.83,-26.38,28.69,-124.23
00/00/2000,0:00:00,0:00:29,0,0,, ,,59.89,0.68,52.43,-0.01,-0.04,0,-0.07,1.51,9.87,-26.31,28.33,-124.19
00/00/2000,0:00:00,0:00:29,0,0,, ,,59.97,0.59,52.58,0.03,-0.05,0,-0.07,1.54,9.88,-26.19,28.75,-124.28
00/00/2000,0:00:00,0:00:29,0,0,, ,,60.09,0.54,52.37,-0.01,-0.04,0,-0.07,1.55,9.87,-26.22,28.76,-123.81
00/00/2000,0:00:00,0:00:29,0,0,, ,,60.14,0.54,52.32,0,-0.05,0,-0.09,1.51,9.89,-26.34,28.62,-124.35
00/00/2000,0:00:00,0:00:29,0,0,, ,,60.2,0.48,52.26,0,-0.05,0,-0.05,1.52,9.86,-26.02,28.5,-124.06
00/00/2000,0:00:00,0:00:30,0,0,, ,,60.3,0.48,52.22,0,-0.04,0,-0.05,1.49,9.88,-26.16,28.19,-123.78
00/00/2000,0:00:00,0:00:30,0,0,, ,,60.29,0.44,52.06,-0.01,-0.05,0,-0.06,1.51,9.89,-26.16,28.84,-124.07
00/00/2000,0:00:00,0:00:30,0,0,, ,,60.32,0.48,52.1,0.01,-0.04,0,-0.07,1.5,9.88,-26.12,28.76,-124.22
00/00/2000,0:00:00,0:00:30,0,0,, ,,60.35,0.47,52.15,0.01,-0.05,0,-0.06,1.51,9.86,-25.99,28.6,-123.95
00/00/2000,0:00:00,0:00:30,0,0,, ,,60.38,0.52,52.18,0.01,-0.04,0,-0.08,1.48,9.88,-26.15,28.94,-124.19
00/00/2000,0:00:00,0:00:30,0,0,, ,,60.39,0.52,52.06,0,-0.04,-0.01,-0.06,1.49,9.87,-26.29,28.98,-124.12
00/00/2000,0:00:00,0:00:31,0,0,, ,,60.44,0.56,52.08,0,-0.04,0,-0.07,1.51,9.87,-25.88,28.87,-124.38
00/00/2000,0:00:00,0:00:31,0,0,, ,,60.44,0.55,51.99,0,-0.04,0,-0.05,1.47,9.89,-27.11,29.11,-125.01
00/00/2000,0:00:00,0:00:31,0,0,, ,,61.06,1.28,49.59,-0.25,0.06,-0.02,-0.09,1.52,9.84,-26.34,29.39,-124.55
00/00/2000,0:00:00,0:00:31,0,0,, ,,60.32,1.43,49.74,0.02,-0.07,0,-0.05,0.78,10.05,-26.45,31.7,-124.19
00/00/2000,0:00:00,0:00:31,0,0,, ,,59.94,1.97,49.81,0,-0.04,0,-0.22,0.84,9.92,-26.09,31.86,-124.26
00/00/2000,0:00:00,0:00:31,0,0,, ,,59.49,2.31,49.82,0,-0.04,0,-0.18,0.8,9.98,-26.76,31.5,-125.18
00/00/2000,0:00:00,0:00:32,0,0,, ,,58.83,2.63,49.84,0,-0.05,0,-0.16,0.82,9.99,-26.41,31.85,-123.98
00/00/2000,0:00:00,0:00:32,0,0,, ,,58.46,2.75,49.76,0,-0.05,0,-0.16,0.79,9.94,-26.62,32.39,-124
00/00/2000,0:00:00,0:00:32,0,0,, ,,58.19,2.91,49.85,0,-0.04,0,-0.17,0.85,9.96,-25.88,32.24,-124.41
00/00/2000,0:00:00,0:00:32,0,0,, ,,57.94,3.13,49.87,0,-0.04,0,-0.24,0.82,9.96,-26.12,31.95,-124.66
00/00/2000,0:00:00,0:00:32,0,0,, ,,57.71,3.26,49.88,0,-0.04,0,-0.19,0.79,9.94,-26.19,31.94,-124.77
00/00/2000,0:00:00,0:00:32,0,0,, ,,57.53,3.44,49.91,0.01,-0.04,0,-0.23,0.78,9.97,-26.38,32.14,-124.26
00/00/2000,0:00:00,0:00:33,0,0,, ,,57.29,3.5,50.05,0.01,-0.04,0,-0.21,0.84,9.93,-26.19,31.92,-124.55
00/00/2000,0:00:00,0:00:33,0,0,, ,,57.17,3.45,50.11,0.01,-0.04,0,-0.17,0.86,9.93,-26.28,31.99,-123.76
00/00/2000,0:00:00,0:00:33,0,0,, ,,57.06,3.51,50.12,0.01,-0.04,0,-0.22,0.78,9.9,-26.56,31.99,-123.65
00/00/2000,0:00:00,0:00:33,0,0,, ,,56.97,3.51,50.13,0.01,-0.04,0,-0.21,0.81,9.95,-26.48,31.95,-123.52
00/00/2000,0:00:00,0:00:33,0,0,, ,,56.86,3.5,50.08,0,-0.04,0,-0.18,0.79,9.96,-26.26,31.99,-124.01
00/00/2000,0:00:00,0:00:33,0,0,, ,,56.79,3.56,50.12,0,-0.04,0,-0.21,0.81,9.94,-26.47,31.6,-123.91
00/00/2000,0:00:00,0:00:34,0,0,, ,,56.77,3.87,50.03,0,-0.04,0,-0.31,0.81,9.9,-26.56,31.92,-123.76
00/00/2000,0:00:00,0:00:34,0,0,, ,,56.68,3.8,50.05,0,-0.04,0,-0.22,0.81,9.9,-26.76,31.79,-123.87
00/00/2000,0:00:00,0:00:34,0,0,, ,,56.58,3.75,50.11,0.01,-0.05,0,-0.22,0.81,9.94,-26.92,31.85,-123.88
00/00/2000,0:00:00,0:00:34,0,0,, ,,56.44,3.64,49.9,-0.01,-0.05,0,-0.18,0.76,9.94,-26.24,32.07,-123.93
00/00/2000,0:00:00,0:00:34,0,0,, ,,56.49,3.74,50.14,0.01,-0.04,0,-0.24,0.88,9.97,-26.82,32.33,-125.53
00/00/2000,0:00:00,0:00:34,0,0,, ,,56.46,3.71,50.14,0.01,-0.04,0,-0.19,0.79,9.92,-26.51,32.59,-125.07
00/00/2000,0:00:00,0:00:35,0,0,, ,,56.46,3.7,50.27,0.01,-0.04,0,-0.19,0.82,9.94,-26.35,32.49,-126.34
00/00/2000,0:00:00,0:00:35,0,0,, ,,56.42,3.63,50.24,0,-0.05,0,-0.18,0.81,9.95,-26.18,32.4,-126.51
00/00/2000,0:00:00,0:00:35,0,0,, ,,56.4,3.58,50.22,0,-0.05,0,-0.19,0.82,9.97,-26.19,32.68,-125.97
00/00/2000,0:00:00,0:00:35,0,0,, ,,56.39,3.61,50.24,0,-0.04,0,-0.19,0.81,9.98,-26.25,32.14,-126.53
00/00/2000,0:00:00,0:00:35,0,0,, ,,56.38,3.66,50.18,0,-0.04,0,-0.21,0.78,9.92,-25.9,32.83,-126.5
00/00/2000,0:00:00,0:00:35,0,0,, ,,56.37,3.72,50.23,0.01,-0.04,0,-0.21,0.82,9.94,-25.94,32.53,-127.11
00/00/2000,0:00:00,0:00:36,0,0,, ,,56.29,3.7,50.14,0,-0.05,0,-0.21,0.8,9.93,-26.28,32.52,-127.01
00/00/2000,0:00:00,0:00:36,0,0,, ,,56.27,3.71,50.16,0,-0.05,0,-0.18,0.8,9.94,-25.88,32.26,-126.81
00/00/2000,0:00:00,0:00:36,0,0,, ,,56.26,3.7,50.21,0,-0.04,0,-0.18,0.81,9.97,-25.78,32.58,-127.65
00/00/2000,0:00:00,0:00:36,0,0,, ,,56.24,3.74,50.17,0,-0.05,0,-0.21,0.79,9.95,-25.67,32.18,-126.24
00/00/2000,0:00:00,0:00:36,0,0,, ,,56.21,3.74,50.09,0,-0.05,0,-0.21,0.78,9.92,-25.87,32.86,-125.75
00/00/2000,0:00:00,0:00:36,0,0,, ,,56.2,3.73,50.16,0,-0.05,0,-0.18,0.81,9.98,-26.16,32.27,-126.64
00/00/2000,0:00:00,0:00:37,0,0,, ,,56.25,3.73,50.31,0.01,-0.04,0,-0.17,0.8,9.97,-25.61,32.62,-126.28
00/00/2000,0:00:00,0:00:37,0,0,, ,,56.24,3.69,50.27,0.01,-0.04,0,-0.18,0.8,9.97,-25.42,32.51,-125.84
00/00/2000,0:00:00,0:00:37,0,0,, ,,56.25,3.7,50.27,0,-0.04,0,-0.2,0.8,9.95,-26.09,32.49,-126.62
00/00/2000,0:00:00,0:00:37,0,0,, ,,56.24,3.7,50.22,0,-0.04,0,-0.19,0.79,9.92,-25.71,32.71,-126.76
00/00/2000,0:00:00,0:00:37,0,0,, ,,56.24,3.65,50.21,0,-0.04,0,-0.18,0.82,9.94,-25.94,32.94,-126.83
00/00/2000,0:00:00,0:00:37,0,0,, ,,56.25,3.61,50.21,0,-0.04,0,-0.18,0.83,9.95,-25.78,33.09,-126.64
00/00/2000,0:00:00,0:00:38,0,0,, ,,56.28,3.7,50.21,0,-0.04,0,-0.2,0.81,9.94,-25.67,32.78,-126.79
00/00/2000,0:00:00,0:00:38,0,0,, ,,56.27,3.69,50.15,0,-0.04,0,-0.18,0.8,9.97,-25.39,32.83,-126.24
00/00/2000,0:00:00,0:00:38,0,0,, ,,56.24,3.73,50.14,0,-0.05,0,-0.2,0.8,9.91,-25.29,32.59,-126.89
00/00/2000,0:00:00,0:00:38,0,0,, ,,56.23,3.72,50.13,0,-0.04,0,-0.2,0.81,9.93,-25.56,32.97,-126.47
00/00/2000,0:00:00,0:00:38,0,0,, ,,56.23,3.72,50.14,0,-0.04,0,-0.2,0.81,9.96,-25.46,32.91,-126.83
00/00/2000,0:00:00,0:00:38,0,0,, ,,56.22,3.73,50.11,0,-0.04,0,-0.19,0.8,9.94,-25.2,32.97,-126.22
00/00/2000,0:00:00,0:00:39,0,0,, ,,56.2,3.85,50.12,0,-0.04,0,-0.2,0.79,9.92,-24.67,32.49,-126.45
00/00/2000,0:00:00,0:00:39,0,0,, ,,56.18,3.88,50.11,0,-0.04,0,-0.21,0.8,9.92,-24.45,32.71,-127.21
00/00/2000,0:00:00,0:00:39,0,0,, ,,56.17,3.84,50.13,0,-0.04,0,-0.19,0.81,9.96,-25.14,32.74,-127.65
00/00/2000,0:00:00,0:00:39,0,0,, ,,56.16,3.78,50.13,0,-0.04,0,-0.17,0.8,9.97,-25.46,32.9,-127.3
00/00/2000,0:00:00,0:00:39,0,0,, ,,56.15,3.78,50.14,0,-0.04,0,-0.18,0.81,9.97,-24.85,32.64,-126.88
00/00/2000,0:00:00,0:00:39,0,0,, ,,56.16,3.78,50.15,0,-0.04,0,-0.19,0.8,9.93,-25.34,32.71,-126.48
00/00/2000,0:00:00,0:00:40,0,0,, ,,56.16,3.81,50.17,0,-0.04,0,-0.2,0.81,9.94,-25.14,32.52,-126.38
00/00/2000,0:00:00,0:00:40,0,0,, ,,56.15,3.79,50.15,0,-0.04,0,-0.19,0.8,9.96,-24.8,32.75,-126.76
00/00/2000,0:00:00,0:00:40,0,0,, ,,56.13,3.75,50.15,0,-0.05,0,-0.18,0.8,9.98,-25.48,32.68,-126.38
00/00/2000,0:00:00,0:00:40,0,0,, ,,56.16,3.79,50.19,0,-0.04,0,-0.2,0.8,9.93,-25.39,32.29,-126.94
00/00/2000,0:00:00,0:00:40,0,0,, ,,56.14,3.8,50.12,0,-0.04,0,-0.21,0.78,9.92,-25.3,33.18,-126.78
00/00/2000,0:00:00,0:00:40,0,0,, ,,56.14,3.78,50.08,0,-0.04,0,-0.2,0.8,9.93,-25.15,33.16,-126.34
00/00/2000,0:00:00,0:00:41,0,0,, ,,56.13,3.75,50.08,0,-0.04,0,-0.18,0.81,9.98,-25.48,32.87,-126.05
00/00/2000,0:00:00,0:00:41,0,0,, ,,56.12,3.74,50.08,0,-0.04,0,-0.18,0.8,9.97,-25.33,33.03,-126.24
00/00/2000,0:00:00,0:00:41,0,0,, ,,56.14,3.74,50.1,0,-0.04,0,-0.19,0.81,9.95,-25.58,32.97,-126.44
00/00/2000,0:00:00,0:00:41,0,0,, ,,56.14,3.82,50.12,0,-0.04,0,-0.22,0.8,9.92,-25.07,32.61,-126.6
00/00/2000,0:00:00,0:00:41,0,0,, ,,56.15,3.77,50.18,0,-0.04,0,-0.17,0.82,9.96,-25.5,32.24,-126.13
00/00/2000,0:00:00,0:00:41,0,0,, ,,56.16,3.75,50.17,0,-0.04,0,-0.19,0.8,9.97,-25.01,32.39,-125.49
00/00/2000,0:00:00,0:00:42,0,0,, ,,56.14,3.66,50.18,0,-0.05,0,-0.17,0.81,9.97,-24.9,32.49,-125.96
00/00/2000,0:00:00,0:00:42,0,0,, ,,56.15,3.67,50.19,0,-0.05,0,-0.18,0.81,9.96,-25.24,32.37,-126.15
00/00/2000,0:00:00,0:00:42,0,0,, ,,56.17,3.7,50.18,0,-0.04,0,-0.2,0.8,9.92,-25.18,32.77,-126.38
00/00/2000,0:00:00,0:00:42,0,0,, ,,56.19,3.71,50.19,0,-0.04,0,-0.19,0.81,9.94,-25.91,32.46,-125.96
00/00/2000,0:00:00,0:00:42,0,0,, ,,56.19,3.68,50.2,0,-0.05,0,-0.18,0.8,9.94,-25.96,32.59,-126.48
00/00/2000,0:00:00,0:00:42,0,0,, ,,56.2,3.72,50.19,0,-0.04,0,-0.2,0.8,9.93,-25.46,32.72,-126.6
00/00/2000,0:00:00,0:00:43,0,0,, ,,56.23,3.81,50.25,0,-0.04,0,-0.2,0.79,9.92,-25.59,31.98,-126.73
00/00/2000,0:00:00,0:00:43,0,0,, ,,56.21,3.8,50.17,0,-0.04,0,-0.21,0.79,9.91,-25.27,32.99,-126.28
00/00/2000,0:00:00,0:00:43,0,0,, ,,56.2,3.81,50.16,0,-0.04,0,-0.21,0.8,9.92,-25.3,32.59,-126.19
00/00/2000,0:00:00,0:00:43,0,0,, ,,56.17,3.78,50.18,0,-0.05,0,-0.18,0.8,9.96,-25.48,32.34,-127.51
00/00/2000,0:00:00,0:00:43,0,0,, ,,56.15,3.77,50.19,0,-0.05,0,-0.18,0.8,9.94,-25.34,32.21,-127.13
00/00/2000,0:00:00,0:00:43,0,0,, ,,56.14,3.78,50.19,0,-0.04,0,-0.19,0.8,9.93,-25.02,32.29,-126.28
00/00/2000,0:00:00,0:00:44,0,0,, ,,56.13,3.74,50.15,0,-0.04,0,-0.18,0.81,9.93,-24.8,32.84,-126.34
00/00/2000,0:00:00,0:00:44,0,0,, ,,56.12,3.69,50.16,0,-0.05,0,-0.17,0.81,9.95,-25.39,32.64,-126
00/00/2000,0:00:00,0:00:44,0,0,, ,,56.11,3.67,50.17,0,-0.05,0,-0.17,0.81,9.96,-24.93,32.72,-126.6
00/00/2000,0:00:00,0:00:44,0,0,, ,,56.13,3.66,50.18,0,-0.04,0,-0.17,0.81,9.96,-25.52,32.67,-125.96
00/00/2000,0:00:00,0:00:44,0,0,, ,,56.16,3.72,50.22,0,-0.04,0,-0.2,0.8,9.91,-25.52,32.18,-125.97
00/00/2000,0:00:00,0:00:44,0,0,, ,,56.17,3.74,50.24,0,-0.04,0,-0.2,0.8,9.92,-25.75,32.18,-126.16
00/00/2000,0:00:00,0:00:45,0,0,, ,,56.18,3.7,50.24,0,-0.05,0,-0.18,0.81,9.91,-25.46,32.36,-127.02
00/00/2000,0:00:00,0:00:45,0,0,, ,,56.17,3.66,50.2,0,-0.05,0,-0.18,0.8,9.94,-25.26,33.21,-127.36
00/00/2000,0:00:00,0:00:45,0,0,, ,,56.17,3.67,50.15,0,-0.04,0,-0.2,0.79,9.92,-25.26,33.09,-126.28
00/00/2000,0:00:00,0:00:45,0,0,, ,,56.17,3.71,50.12,0,-0.04,0,-0.2,0.79,9.91,-25.31,33.02,-126.22
00/00/2000,0:00:00,0:00:45,0,0,, ,,56.19,3.76,50.15,0,-0.04,0,-0.21,0.8,9.91,-25.96,32.65,-127.11
00/00/2000,0:00:00,0:00:45,0,0,, ,,56.18,3.71,50.18,0,-0.05,0,-0.16,0.81,9.96,-25.39,32.51,-126.72
00/00/2000,0:00:00,0:00:46,0,0,, ,,56.2,3.71,50.24,0,-0.04,0,-0.18,0.81,9.96,-25.59,32.32,-126.47
00/00/2000,0:00:00,0:00:46,0,0,, ,,56.2,3.71,50.2,0,-0.04,0,-0.2,0.8,9.94,-25.56,32.68,-126.56
00/00/2000,0:00:00,0:00:46,0,0,, ,,56.2,3.72,50.14,0,-0.04,0,-0.2,0.79,9.94,-25.34,32.83,-126.4
00/00/2000,0:00:00,0:00:46,0,0,, ,,56.2,3.73,50.18,0,-0.04,0,-0.18,0.8,9.93,-25.59,32.27,-126.53
00/00/2000,0:00:00,0:00:46,0,0,, ,,56.2,3.69,50.19,0,-0.04,0,-0.18,0.82,9.95,-25.45,32.74,-126.4
00/00/2000,0:00:00,0:00:46,0,0,, ,,56.21,3.67,50.23,0,-0.05,0,-0.17,0.81,9.96,-25.94,32.11,-126.16
00/00/2000,0:00:00,0:00:47,0,0,, ,,56.24,3.71,50.23,0,-0.04,0,-0.2,0.79,9.92,-25.94,32.27,-125.69
00/00/2000,0:00:00,0:00:47,0,0,, ,,56.24,3.73,50.2,0,-0.04,0,-0.2,0.79,9.92,-25.3,32.43,-125.59
00/00/2000,0:00:00,0:00:47,0,0,, ,,56.24,3.71,50.2,0,-0.04,0,-0.19,0.8,9.93,-25.71,32.33,-125.46
00/00/2000,0:00:00,0:00:47,0,0,, ,,56.24,3.69,50.19,0,-0.04,0,-0.19,0.81,9.93,-25.4,32.46,-125.65
00/00/2000,0:00:00,0:00:47,0,0,, ,,56.24,3.74,50.18,0,-0.04,0,-0.21,0.79,9.95,-25.78,32.4,-125.72
00/00/2000,0:00:00,0:00:47,0,0,, ,,56.23,3.76,50.15,0,-0.04,0,-0.2,0.79,9.94,-25.55,32.64,-126.19
00/00/2000,0:00:00,0:00:48,0,0,, ,,56.23,3.74,50.09,0,-0.04,0,-0.21,0.8,9.92,-25.94,33.13,-126.07
00/00/2000,0:00:00,0:00:48,0,0,, ,,56.21,3.76,50.1,0,-0.04,0,-0.2,0.79,9.92,-25.65,32.91,-126.59
00/00/2000,0:00:00,0:00:48,0,0,, ,,56.19,3.71,50.08,0,-0.05,0,-0.17,0.81,9.97,-25.62,33.06,-126.34
00/00/2000,0:00:00,0:00:48,0,0,, ,,56.19,3.7,50.15,0,-0.04,0,-0.17,0.81,9.97,-25.42,32.52,-126.48
00/00/2000,0:00:00,0:00:48,0,0,, ,,56.2,3.67,50.14,0,-0.04,0,-0.19,0.81,9.96,-26.22,32.84,-125.11
00/00/2000,0:00:00,0:00:48,0,0,, ,,56.21,3.68,50.15,0,-0.04,0,-0.19,0.81,9.94,-25.59,32.56,-125.18
00/00/2000,0:00:00,0:00:49,0,0,, ,,56.22,3.64,50.19,0,-0.04,0,-0.18,0.8,9.95,-25.84,32.56,-125.59
00/00/2000,0:00:00,0:00:49,0,0,, ,,56.24,3.6,50.17,0,-0.04,0,-0.18,0.81,9.95,-25.77,32.75,-125.33
00/00/2000,0:00:00,0:00:49,0,0,, ,,56.23,3.55,50.12,0,-0.05,0,-0.18,0.81,9.97,-25.97,33.4,-125.75
00/00/2000,0:00:00,0:00:49,0,0,, ,,56.25,3.69,50.17,0,-0.04,0,-0.21,0.79,9.91,-25.59,32.43,-126.66
00/00/2000,0:00:00,0:00:49,0,0,, ,,56.27,3.73,50.18,0,-0.04,0,-0.21,0.8,9.92,-25.69,32.43,-125.96
00/00/2000,0:00:00,0:00:49,0,0,, ,,56.27,3.71,50.22,0,-0.04,0,-0.18,0.81,9.97,-25.94,32.11,-126.09
00/00/2000,0:00:00,0:00:50,0,0,, ,,56.27,3.64,50.18,0,-0.04,0,-0.18,0.81,9.97,-26.12,32.78,-126.47
00/00/2000,0:00:00,0:00:50,0,0,, ,,56.27,3.65,50.16,0,-0.04,0,-0.2,0.8,9.96,-25.65,32.64,-125.83
00/00/2000,0:00:00,0:00:50,0,0,, ,,56.28,3.7,50.17,0,-0.04,0,-0.2,0.79,9.94,-25.78,32.24,-125.78
00/00/2000,0:00:00,0:00:50,0,0,, ,,56.27,3.76,50.15,0,-0.04,0,-0.21,0.79,9.92,-25.46,32.75,-126.66
00/00/2000,0:00:00,0:00:50,0,0,, ,,56.26,3.77,50.15,0,-0.04,0,-0.2,0.79,9.93,-25.87,32.39,-125.9
00/00/2000,0:00:00,0:00:50,0,0,, ,,56.25,3.73,50.16,0,-0.04,0,-0.18,0.8,9.98,-25.78,32.42,-125.8
00/00/2000,0:00:00,0:00:51,0,0,, ,,56.24,3.72,50.12,0,-0.04,0,-0.2,0.8,9.92,-25.49,32.77,-125.49
00/00/2000,0:00:00,0:00:51,0,0,, ,,56.23,3.73,50.13,0,-0.04,0,-0.2,0.8,9.96,-25.78,32.7,-126.21
00/00/2000,0:00:00,0:00:51,0,0,, ,,56.22,3.76,50.17,0,-0.04,0,-0.19,0.8,9.95,-25.42,32.23,-126.6
00/00/2000,0:00:00,0:00:51,0,0,, ,,56.21,3.7,50.14,0,-0.04,0,-0.18,0.82,9.97,-25.62,33.35,-126.48
00/00/2000,0:00:00,0:00:51,0,0,, ,,56.21,3.67,50.16,0,-0.05,0,-0.18,0.81,9.98,-25.49,32.72,-126.29
00/00/2000,0:00:00,0:00:51,0,0,, ,,56.21,3.72,50.15,0,-0.04,0,-0.2,0.79,9.93,-25.97,32.67,-126.59
00/00/2000,0:00:00,0:00:52,0,0,, ,,56.23,3.77,50.16,0,-0.04,0,-0.21,0.8,9.93,-26.06,32.64,-126.64
00/00/2000,0:00:00,0:00:52,0,0,, ,,56.23,3.81,50.18,0,-0.04,0,-0.21,0.8,9.93,-25.81,32.33,-126.6
00/00/2000,0:00:00,0:00:52,0,0,, ,,56.22,3.73,50.15,0,-0.04,0,-0.19,0.81,9.93,-25.91,33.03,-125.58
00/00/2000,0:00:00,0:00:52,0,0,, ,,56.22,3.73,50.15,0,-0.04,0,-0.2,0.8,9.95,-25.91,32.67,-125.86
00/00/2000,0:00:00,0:00:52,0,0,, ,,56.22,3.74,50.15,0,-0.04,0,-0.19,0.8,9.95,-25.68,32.59,-125.78
00/00/2000,0:00:00,0:00:52,0,0,, ,,56.2,3.74,50.14,0,-0.05,0,-0.21,0.79,9.94,-25.86,32.91,-126.34
00/00/2000,0:00:00,0:00:53,0,0,, ,,56.21,3.69,50.17,0,-0.04,0,-0.18,0.81,9.97,-25.72,32.61,-125.88
00/00/2000,0:00:00,0:00:53,0,0,, ,,56.2,3.67,50.17,0,-0.05,0,-0.18,0.81,9.97,-25.61,32.45,-125.8
00/00/2000,0:00:00,0:00:53,0,0,, ,,56.2,3.62,50.17,0,-0.05,0,-0.17,0.81,9.98,-25.77,32.84,-125.59
00/00/2000,0:00:00,0:00:53,0,0,, ,,56.24,3.67,50.15,0,-0.04,0,-0.2,0.79,9.92,-25.99,32.77,-125.81
00/00/2000,0:00:00,0:00:53,0,0,, ,,56.25,3.73,50.19,0,-0.04,0,-0.21,0.8,9.94,-25.45,32.34,-126.28
00/00/2000,0:00:00,0:00:53,0,0,, ,,56.24,3.72,50.19,0,-0.04,0,-0.18,0.8,9.95,-25.12,32.34,-126.25
00/00/2000,0:00:00,0:00:54,0,0,, ,,56.24,3.74,50.2,0,-0.04,0,-0.19,0.81,9.96,-25.58,32.46,-126.16
00/00/2000,0:00:00,0:00:54,0,0,, ,,56.24,3.7,50.24,0,-0.04,0,-0.17,0.82,9.97,-25.88,32.13,-126.05
00/00/2000,0:00:00,0:00:54,0,0,, ,,56.27,3.72,50.22,0,-0.04,0,-0.21,0.8,9.91,-26.26,32.33,-125.68
00/00/2000,0:00:00,0:00:54,0,0,, ,,56.27,3.73,50.19,0,-0.04,0,-0.2,0.79,9.91,-26,32.71,-126.63
00/00/2000,0:00:00,0:00:54,0,0,, ,,56.26,3.65,50.17,0,-0.05,0,-0.17,0.81,9.97,-25.96,32.72,-125.78
00/00/2000,0:00:00,0:00:54,0,0,, ,,56.25,3.63,50.16,0,-0.05,0,-0.18,0.81,9.97,-25.83,32.55,-125.58
00/00/2000,0:00:00,0:00:55,0,0,, ,,56.25,3.65,50.15,0,-0.04,0,-0.19,0.8,9.97,-26.12,32.67,-125.31
00/00/2000,0:00:00,0:00:55,0,0,, ,,56.25,3.68,50.14,0,-0.04,0,-0.2,0.8,9.94,-25.52,32.45,-125.08
00/00/2000,0:00:00,0:00:55,0,0,, ,,56.25,3.64,50.17,0,-0.04,0,-0.17,0.81,9.95,-26.03,32.61,-125.67
00/00/2000,0:00:00,0:00:55,0,0,, ,,56.25,3.64,50.18,0,-0.04,0,-0.17,0.81,9.97,-25.43,32.33,-125.46
00/00/2000,0:00:00,0:00:55,0,0,, ,,56.23,3.61,50.16,0,-0.05,0,-0.18,0.81,9.99,-25.67,32.72,-125.61
00/00/2000,0:00:00,0:00:55,0,0,, ,,56.23,3.66,50.13,0,-0.04,0,-0.2,0.79,9.93,-25.8,32.83,-126
00/00/2000,0:00:00,0:00:56,0,0,, ,,56.21,3.76,50.09,0,-0.04,0,-0.21,0.79,9.93,-25.39,32.62,-125.68
00/00/2000,0:00:00,0:00:56,0,0,, ,,56.2,3.75,50.07,0,-0.04,0,-0.2,0.79,9.94,-25.97,33.08,-125.99
00/00/2000,0:00:00,0:00:56,0,0,, ,,56.21,3.73,50.11,0,-0.04,0,-0.19,0.81,9.95,-26.07,32.71,-126.4
00/00/2000,0:00:00,0:00:56,0,0,, ,,56.2,3.73,50.11,0,-0.04,0,-0.2,0.81,9.97,-25.49,32.97,-126.31
00/00/2000,0:00:00,0:00:56,0,0,, ,,56.2,3.73,50.07,0,-0.04,0,-0.21,0.79,9.94,-25.59,33.02,-125.36
00/00/2000,0:00:00,0:00:56,0,0,, ,,56.2,3.77,50.06,0,-0.04,0,-0.21,0.79,9.93,-25.56,33.06,-125.97
00/00/2000,0:00:00,0:00:57,0,0,, ,,56.18,3.76,50.16,0,-0.05,0,-0.18,0.81,9.98,-25.86,32.59,-127.14
00/00/2000,0:00:00,0:00:57,0,0,, ,,56.18,3.71,50.17,0,-0.04,0,-0.18,0.81,9.98,-25.87,32.74,-126.57
00/00/2000,0:00:00,0:00:57,0,0,, ,,56.18,3.71,50.17,0,-0.04,0,-0.18,0.8,9.97,-25.34,32.74,-126.81
00/00/2000,0:00:00,0:00:57,0,0,, ,,56.18,3.72,50.16,0,-0.04,0,-0.19,0.8,9.96,-25.69,32.61,-126.35
00/00/2000,0:00:00,0:00:57,0,0,, ,,56.19,3.71,50.18,0,-0.04,0,-0.19,0.81,9.95,-25.8,32.61,-126.38
00/00/2000,0:00:00,0:00:57,0,0,, ,,56.18,3.63,50.12,0,-0.05,0,-0.17,0.81,9.96,-25.52,33.37,-125.9
00/00/2000,0:00:00,0:00:58,0,0,, ,,56.18,3.66,50.17,0,-0.05,0,-0.18,0.81,9.97,-25.11,32.74,-126.53
00/00/2000,0:00:00,0:00:58,0,0,, ,,56.19,3.65,50.19,0,-0.05,0,-0.18,0.81,9.98,-25.83,32.48,-126.18
00/00/2000,0:00:00,0:00:58,0,0,, ,,56.2,3.64,50.19,0,-0.04,0,-0.18,0.8,9.98,-26.02,32.45,-124.98
00/00/2000,0:00:00,0:00:58,0,0,, ,,56.22,3.66,50.18,0,-0.04,0,-0.2,0.8,9.93,-25.62,32.83,-126.06
00/00/2000,0:00:00,0:00:58,0,0,, ,,56.23,3.68,50.16,0,-0.04,0,-0.2,0.81,9.93,-25.78,32.78,-125.88
00/00/2000,0:00:00,0:00:58,0,0,, ,,56.23,3.69,50.18,0,-0.04,0,-0.18,0.8,9.96,-25.93,32.34,-126.05
00/00/2000,0:00:00,0:00:59,0,0,, ,,56.22,3.65,50.11,0,-0.04,0,-0.19,0.79,9.94,-25.94,32.97,-126.16
00/00/2000,0:00:00,0:00:59,0,0,, ,,56.22,3.67,50.09,0,-0.04,0,-0.2,0.79,9.94,-25.53,32.77,-125.3
00/00/2000,0:00:00,0:00:59,0,0,, ,,56.23,3.74,50.12,0,-0.04,0,-0.21,0.78,9.93,-26.28,32.43,-125.65
00/00/2000,0:00:00,0:00:59,0,0,, ,,56.22,3.71,50.16,0,-0.05,0,-0.18,0.82,9.98,-25.75,32.52,-125.88
00/00/2000,0:00:00,0:00:59,0,0,, ,,56.22,3.68,50.17,0,-0.04,0,-0.18,0.81,9.98,-25.64,32.51,-125.58
00/00/2000,0:00:00,0:00:59,0,0,, ,,56.23,3.67,50.19,0,-0.04,0,-0.18,0.81,9.97,-26,32.58,-126.16
00/00/2000,0:00:00,0:01:00,0,0,, ,,56.26,3.76,50.22,0,-0.04,0,-0.21,0.8,9.94,-25.72,32.23,-126.47
00/00/2000,0:00:00,0:01:00,0,0,, ,,56.24,3.74,50.15,0,-0.04,0,-0.2,0.79,9.94,-25.23,32.72,-125.5
00/00/2000,0:00:00,0:01:00,0,0,, ,,56.24,3.72,50.2,0,-0.05,0,-0.19,0.81,9.96,-26.47,32.23,-126.51
00/00/2000,0:00:00,0:01:00,0,0,, ,,56.23,3.69,50.21,0,-0.05,0,-0.17,0.81,9.98,-25.49,32.34,-126.43
00/00/2000,0:00:00,0:01:00,0,0,, ,,56.22,3.67,50.23,0,-0.05,0,-0.17,0.81,9.98,-25.39,32.37,-127.13
00/00/2000,0:00:00,0:01:00,0,0,, ,,56.24,3.75,50.24,0,-0.04,0,-0.22,0.79,9.93,-25.61,32.08,-125.64
00/00/2000,0:00:00,0:01:01,0,0,, ,,56.22,3.75,50.22,0,-0.05,0,-0.21,0.8,9.92,-25.58,32.2,-125.71
00/00/2000,0:00:00,0:01:01,0,0,, ,,56.23,3.74,50.24,0,-0.04,0,-0.2,0.81,9.93,-25.65,32.33,-126.79
00/00/2000,0:00:00,0:01:01,0,0,, ,,56.22,3.73,50.24,0,-0.05,0,-0.18,0.8,9.96,-25.17,32.04,-126.29
00/00/2000,0:00:00,0:01:01,0,0,, ,,56.22,3.75,50.24,0,-0.04,0,-0.2,0.8,9.94,-25.59,32.18,-126.81
00/00/2000,0:00:00,0:01:01,0,0,, ,,56.22,3.79,50.19,0,-0.04,0,-0.21,0.79,9.93,-25.4,32.58,-126.63
00/00/2000,0:00:00,0:01:01,0,0,, ,,56.21,3.75,50.22,0,-0.05,0,-0.18,0.82,9.97,-25.55,32.15,-126.4
00/00/2000,0:00:00,0:01:02,0,0,, ,,56.2,3.68,50.23,0,-0.05,0,-0.18,0.81,9.97,-25.37,32.3,-126.07
00/00/2000,0:00:00,0:01:02,0,0,, ,,56.21,3.66,50.23,0,-0.04,0,-0.17,0.82,9.97,-25.4,32.52,-126.03
00/00/2000,0:00:00,0:01:02,0,0,, ,,56.22,3.69,50.25,0,-0.04,0,-0.18,0.8,9.97,-24.79,32.3,-126.66
00/00/2000,0:00:00,0:01:02,0,0,, ,,56.22,3.71,50.23,0,-0.04,0,-0.19,0.8,9.96,-24.89,32.51,-126.94
00/00/2000,0:00:00,0:01:02,0,0,, ,,56.23,3.75,50.25,0,-0.04,0,-0.19,0.8,9.94,-25.2,31.94,-126.15
00/00/2000,0:00:00,0:01:02,0,0,, ,,56.23,3.7,50.22,0,-0.04,0,-0.17,0.81,9.97,-25.31,32.3,-125.83
00/00/2000,0:00:00,0:01:03,0,0,, ,,56.25,3.73,50.25,0,-0.04,0,-0.2,0.8,9.94,-26.03,32.02,-125.96
00/00/2000,0:00:00,0:01:03,0,0,, ,,56.26,3.75,50.19,0,-0.04,0,-0.21,0.79,9.94,-25.71,32.65,-125.77
00/00/2000,0:00:00,0:01:03,0,0,, ,,56.25,3.8,50.18,0,-0.04,0,-0.21,0.78,9.92,-25.1,32.17,-126.29
00/00/2000,0:00:00,0:01:03,0,0,, ,,56.23,3.74,50.14,0,-0.04,0,-0.17,0.79,9.93,-25.43,32.64,-125.71
00/00/2000,0:00:00,0:01:03,0,0,, ,,56.22,3.67,50.12,0,-0.04,0,-0.17,0.81,9.97,-25.46,32.96,-126.1
00/00/2000,0:00:00,0:01:03,0,0,, ,,56.23,3.69,50.15,0,-0.04,0,-0.18,0.8,9.95,-25.39,32.39,-125.9
00/00/2000,0:00:00,0:01:04,0,0,, ,,56.25,3.75,50.22,0,-0.04,0,-0.18,0.8,9.97,-25.58,32.14,-126.57
00/00/2000,0:00:00,0:01:04,0,0,, ,,56.25,3.76,50.21,0,-0.04,0,-0.2,0.8,9.94,-25.68,32.61,-126.83
00/00/2000,0:00:00,0:01:04,0,0,, ,,56.24,3.77,50.21,0,-0.04,0,-0.21,0.79,9.92,-26.31,32.55,-126.15
00/00/2000,0:00:00,0:01:04,0,0,, ,,56.23,3.69,50.2,0,-0.05,0,-0.17,0.8,9.98,-25.91,32.46,-126.25
00/00/2000,0:00:00,0:01:04,0,0,, ,,56.24,3.63,50.18,0,-0.05,0,-0.17,0.81,9.98,-25.78,32.8,-126.25
00/00/2000,0:00:00,0:01:04,0,0,, ,,56.25,3.73,50.24,0,-0.04,0,-0.2,0.79,9.92,-25.31,32.04,-127.38
00/00/2000,0:00:00,0:01:05,0,0,, ,,56.24,3.79,50.21,0,-0.04,0,-0.21,0.79,9.93,-25.64,32.53,-126.91
00/00/2000,0:00:00,0:01:05,0,0,, ,,56.24,3.77,50.23,0,-0.04,0,-0.19,0.81,9.94,-25.68,32.34,-126.57
00/00/2000,0:00:00,0:01:05,0,0,, ,,56.22,3.75,50.22,0,-0.05,0,-0.18,0.8,9.95,-25.8,32.42,-127.38
00/00/2000,0:00:00,0:01:05,0,0,, ,,56.22,3.74,50.23,0,-0.05,0,-0.19,0.79,9.95,-25.93,31.89,-125.91
00/00/2000,0:00:00,0:01:05,0,0,, ,,56.21,3.77,50.18,0,-0.04,0,-0.21,0.79,9.93,-25.65,32.65,-126.13
00/00/2000,0:00:00,0:01:05,0,0,, ,,56.2,3.8,50.15,0,-0.04,0,-0.21,0.8,9.92,-25.42,32.86,-126.85
00/00/2000,0:00:00,0:01:06,0,0,, ,,56.19,3.7,50.19,0,-0.05,0,-0.18,0.81,9.97,-26.45,32.45,-125.97
00/00/2000,0:00:00,0:01:06,0,0,, ,,56.19,3.66,50.22,0,-0.05,0,-0.17,0.81,9.97,-26.56,32.43,-126.63
00/00/2000,0:00:00,0:01:06,0,0,, ,,56.19,3.66,50.22,0,-0.05,0,-0.19,0.8,9.97,-25.83,32.53,-126.07
00/00/2000,0:00:00,0:01:06,0,0,, ,,56.21,3.7,50.25,0,-0.04,0,-0.2,0.79,9.95,-26.32,32.17,-126.44
00/00/2000,0:00:00,0:01:06,0,0,, ,,56.22,3.65,50.25,0,-0.05,0,-0.18,0.81,9.95,-25.91,32.23,-125.49
00/00/2000,0:00:00,0:01:06,0,0,, ,,56.23,3.65,50.29,0,-0.05,0,-0.18,0.81,9.97,-26.02,32.07,-126.7
00/00/2000,0:00:00,0:01:07,0,0,, ,,56.24,3.73,50.27,0,-0.04,0,-0.2,0.79,9.95,-25.55,32.04,-126.56
00/00/2000,0:00:00,0:01:07,0,0,, ,,56.21,3.66,50.23,0,-0.05,0,-0.17,0.81,9.98,-25.53,32.68,-126.64
00/00/2000,0:00:00,0:01:07,0,0,, ,,56.22,3.68,50.18,0,-0.04,0,-0.21,0.79,9.93,-26.03,32.8,-125.94
00/00/2000,0:00:00,0:01:07,0,0,, ,,56.23,3.72,50.22,0,-0.04,0,-0.2,0.79,9.92,-26,32.18,-126.29
00/00/2000,0:00:00,0:01:07,0,0,, ,,56.25,3.68,50.21,0,-0.04,0,-0.18,0.81,9.95,-25.97,32.55,-125.96
00/00/2000,0:00:00,0:01:07,0,0,, ,,56.27,3.69,50.23,0,-0.04,0,-0.19,0.8,9.96,-26.13,32.48,-126.43
00/00/2000,0:00:00,0:01:08,0,0,, ,,56.27,3.71,50.22,0,-0.04,0,-0.19,0.8,9.95,-25.74,32.14,-126.25
00/00/2000,0:00:00,0:01:08,0,0,, ,,56.27,3.73,50.21,0,-0.04,0,-0.2,0.79,9.93,-26.05,32.29,-125.83
00/00/2000,0:00:00,0:01:08,0,0,, ,,56.27,3.74,50.14,0,-0.04,0,-0.21,0.79,9.92,-25.58,32.74,-125.46
00/00/2000,0:00:00,0:01:08,0,0,, ,,56.24,3.67,50.14,0,-0.05,0,-0.17,0.81,9.98,-25.83,33.03,-126.43
00/00/2000,0:00:00,0:01:08,0,0,, ,,56.24,3.66,50.15,0,-0.04,0,-0.18,0.81,9.98,-25.84,32.8,-126.53
00/00/2000,0:00:00,0:01:08,0,0,, ,,56.25,3.71,50.16,0,-0.04,0,-0.2,0.8,9.93,-25.62,32.7,-126.78
00/00/2000,0:00:00,0:01:09,0,0,, ,,56.27,3.84,50.27,0,-0.04,0,-0.21,0.8,9.93,-25.81,32.1,-127.14
00/00/2000,0:00:00,0:01:09,0,0,, ,,56.26,3.79,50.23,0,-0.04,0,-0.19,0.8,9.95,-25.9,32.37,-126.41
00/00/2000,0:00:00,0:01:09,0,0,, ,,56.24,3.74,50.21,0,-0.04,0,-0.18,0.81,9.96,-25.4,32.65,-126.73
00/00/2000,0:00:00,0:01:09,0,0,, ,,56.24,3.79,50.2,0,-0.04,0,-0.2,0.79,9.96,-25.5,32.26,-126.91
00/00/2000,0:00:00,0:01:09,0,0,, ,,56.23,3.81,50.16,0,-0.04,0,-0.21,0.79,9.93,-25.75,33,-127.54
00/00/2000,0:00:00,0:01:09,0,0,, ,,56.21,3.83,50.16,0,-0.04,0,-0.2,0.79,9.92,-25.68,32.48,-127.21
00/00/2000,0:00:00,0:01:10,0,0,, ,,56.2,3.68,50.19,0,-0.05,0,-0.17,0.82,9.93,-26,32.75,-126.62
00/00/2000,0:00:00,0:01:10,0,0,, ,,56.21,3.71,50.21,0,-0.04,0,-0.2,0.8,9.94,-25.74,32.42,-126.91
00/00/2000,0:00:00,0:01:10,0,0,, ,,56.22,3.72,50.23,0,-0.04,0,-0.19,0.8,9.97,-25.97,32.59,-127.68
00/00/2000,0:00:00,0:01:10,0,0,, ,,56.24,3.72,50.21,0,-0.04,0,-0.2,0.8,9.94,-25.9,32.65,-126.95
00/00/2000,0:00:00,0:01:10,0,0,, ,,56.25,3.67,50.22,0,-0.04,0,-0.18,0.82,9.95,-26.34,32.65,-126.5
00/00/2000,0:00:00,0:01:10,0,0,, ,,56.26,3.66,50.27,0,-0.04,0,-0.17,0.82,9.97,-25.75,31.96,-126.62
00/00/2000,0:00:00,0:01:11,0,0,, ,,56.27,3.63,50.28,0,-0.05,0,-0.17,0.81,9.97,-25.55,32.42,-127.46
00/00/2000,0:00:00,0:01:11,0,0,, ,,56.28,3.65,50.3,0,-0.04,0,-0.18,0.81,9.97,-25.58,32.04,-127.08
00/00/2000,0:00:00,0:01:11,0,0,, ,,56.28,3.7,50.27,0,-0.04,0,-0.2,0.79,9.92,-25.62,32.26,-126.73
00/00/2000,0:00:00,0:01:11,0,0,, ,,56.28,3.74,50.27,0,-0.04,0,-0.2,0.79,9.93,-25.72,31.99,-126.81
00/00/2000,0:00:00,0:01:11,0,0,, ,,56.29,3.73,50.27,0,-0.04,0,-0.2,0.8,9.94,-25.9,32.18,-126.56
00/00/2000,0:00:00,0:01:11,0,0,, ,,56.28,3.78,50.27,0,-0.04,0,-0.21,0.79,9.96,-25.4,31.77,-126.73
00/00/2000,0:00:00,0:01:12,0,0,, ,,56.29,3.76,50.26,0,-0.04,0,-0.2,0.8,9.94,-26.09,32.13,-126.91
00/00/2000,0:00:00,0:01:12,0,0,, ,,56.28,3.78,50.21,0,-0.04,0,-0.2,0.79,9.93,-25.23,32.32,-126.57
00/00/2000,0:00:00,0:01:12,0,0,, ,,56.27,3.79,50.19,0,-0.04,0,-0.21,0.79,9.92,-25.9,32.4,-126.75
00/00/2000,0:00:00,0:01:12,0,0,, ,,56.26,3.79,50.19,0,-0.04,0,-0.2,0.79,9.92,-25.91,32.48,-126.86
00/00/2000,0:00:00,0:01:12,0,0,, ,,56.24,3.71,50.15,0,-0.05,0,-0.18,0.8,9.98,-25.88,32.99,-126.32
00/00/2000,0:00:00,0:01:12,0,0,, ,,56.23,3.73,50.18,0,-0.04,0,-0.18,0.8,9.96,-25.67,32.13,-126.22
00/00/2000,0:00:00,0:01:13,0,0,, ,,56.27,3.82,50.28,0,-0.04,0,-0.21,0.8,9.93,-25.55,31.88,-126.26
00/00/2000,0:00:00,0:01:13,0,0,, ,,56.26,3.82,50.26,0,-0.04,0,-0.2,0.79,9.94,-25.94,31.88,-126.47
00/00/2000,0:00:00,0:01:13,0,0,, ,,56.25,3.74,50.24,0,-0.04,0,-0.18,0.81,9.96,-25.46,32.59,-126.66
00/00/2000,0:00:00,0:01:13,0,0,, ,,56.23,3.68,50.21,0,-0.05,0,-0.17,0.81,9.97,-25.53,32.43,-125.78
00/00/2000,0:00:00,0:01:13,0,0,, ,,56.23,3.68,50.22,0,-0.04,0,-0.17,0.82,9.98,-25.23,32.21,-126.19
00/00/2000,0:00:00,0:01:13,0,0,, ,,56.23,3.76,50.21,0,-0.04,0,-0.22,0.79,9.92,-25.59,32.32,-126.34
00/00/2000,0:00:00,0:01:14,0,0,, ,,56.21,3.79,50.16,0,-0.04,0,-0.21,0.79,9.93,-25.53,32.46,-126.29
00/00/2000,0:00:00,0:01:14,0,0,, ,,56.21,3.77,50.18,0,-0.04,0,-0.19,0.81,9.94,-26.02,32.59,-126.78
00/00/2000,0:00:00,0:01:14,0,0,, ,,56.22,3.75,50.21,0,-0.04,0,-0.19,0.81,9.95,-25.97,32.4,-126.48
00/00/2000,0:00:00,0:01:14,0,0,, ,,56.23,3.78,50.22,0,-0.04,0,-0.21,0.8,9.94,-25.93,32.37,-126.69
00/00/2000,0:00:00,0:01:14,0,0,, ,,56.23,3.78,50.18,0,-0.04,0,-0.21,0.79,9.93,-25.62,32.51,-126.12
00/00/2000,0:00:00,0:01:14,0,0,, ,,56.23,3.72,50.21,0,-0.04,0,-0.17,0.81,9.96,-25.93,32.4,-126.79
00/00/2000,0:00:00,0:01:15,0,0,, ,,56.23,3.65,50.24,0,-0.05,0,-0.17,0.8,9.97,-26.16,32.15,-125.97
00/00/2000,0:00:00,0:01:15,0,0,, ,,56.24,3.63,50.27,0,-0.05,0,-0.18,0.81,9.98,-26.53,32.33,-126.5
00/00/2000,0:00:00,0:01:15,0,0,, ,,56.25,3.62,50.24,0,-0.04,0,-0.18,0.81,9.97,-26.09,32.59,-126.48
00/00/2000,0:00:00,0:01:15,0,0,, ,,56.26,3.68,50.27,0,-0.04,0,-0.19,0.8,9.93,-26.03,32.26,-127.45
00/00/2000,0:00:00,0:01:15,0,0,, ,,56.28,3.65,50.26,0,-0.04,0,-0.18,0.8,9.96,-26.26,32.45,-126.45
00/00/2000,0:00:00,0:01:15,0,0,, ,,56.28,3.65,50.24,0,-0.04,0,-0.19,0.8,9.96,-25.87,32.68,-127.24
00/00/2000,0:00:00,0:01:16,0,0,, ,,56.27,3.68,50.18,0,-0.04,0,-0.19,0.79,9.94,-25.96,32.51,-126.63
00/00/2000,0:00:00,0:01:16,0,0,, ,,56.28,3.7,50.16,0,-0.04,0,-0.21,0.79,9.92,-26.15,32.71,-126.51
00/00/2000,0:00:00,0:01:16,0,0,, ,,56.26,3.75,50.14,0,-0.04,0,-0.21,0.78,9.92,-25.83,32.77,-126.92
00/00/2000,0:00:00,0:01:16,0,0,, ,,56.26,3.75,50.15,0,-0.04,0,-0.2,0.8,9.92,-25.8,32.8,-127.21
00/00/2000,0:00:00,0:01:16,0,0,, ,,56.24,3.75,50.22,0,-0.05,0,-0.18,0.8,9.96,-26,31.92,-127.13
00/00/2000,0:00:00,0:01:16,0,0,, ,,56.24,3.73,50.23,0,-0.04,0,-0.18,0.81,9.94,-26.06,32.3,-126.95
00/00/2000,0:00:00,0:01:17,0,0,, ,,56.25,3.7,50.25,0,-0.04,0,-0.19,0.81,9.94,-25.93,32.34,-126.95
00/00/2000,0:00:00,0:01:17,0,0,, ,,56.26,3.72,50.21,0,-0.04,0,-0.22,0.79,9.93,-26.37,32.72,-126.6
00/00/2000,0:00:00,0:01:17,0,0,, ,,56.27,3.71,50.25,0,-0.04,0,-0.18,0.81,9.96,-25.96,32.14,-126.97
00/00/2000,0:00:00,0:01:17,0,0,, ,,56.27,3.68,50.29,0,-0.05,0,-0.17,0.81,9.96,-25.58,32.18,-127.55
00/00/2000,0:00:00,0:01:17,0,0,, ,,56.26,3.7,50.29,0,-0.04,0,-0.19,0.81,9.98,-25.39,32.23,-127.07
00/00/2000,0:00:00,0:01:17,0,0,, ,,56.26,3.73,50.26,0,-0.04,0,-0.2,0.79,9.92,-25.75,32.36,-126.48
00/00/2000,0:00:00,0:01:18,0,0,, ,,56.27,3.75,50.24,0,-0.04,0,-0.2,0.79,9.92,-26.12,32.21,-126.59
00/00/2000,0:00:00,0:01:18,0,0,, ,,56.26,3.74,50.23,0,-0.04,0,-0.19,0.8,9.94,-26.22,32.43,-127.02
00/00/2000,0:00:00,0:01:18,0,0,, ,,56.26,3.75,50.27,0,-0.04,0,-0.19,0.81,9.96,-25.72,31.98,-127.43
00/00/2000,0:00:00,0:01:18,0,0,, ,,56.27,3.78,50.27,0,-0.04,0,-0.21,0.8,9.94,-25.86,31.83,-126.09
00/00/2000,0:00:00,0:01:18,0,0,, ,,56.26,3.76,50.22,0,-0.04,0,-0.21,0.79,9.93,-26.12,32.48,-126.22
00/00/2000,0:00:00,0:01:18,0,0,, ,,56.26,3.8,50.21,0,-0.04,0,-0.21,0.78,9.92,-25.77,32.3,-126.62
00/00/2000,0:00:00,0:01:19,0,0,, ,,56.25,3.68,50.21,0,-0.04,0,-0.17,0.81,9.97,-25.74,32.29,-126.02
00/00/2000,0:00:00,0:01:19,0,0,, ,,56.25,3.64,50.2,0,-0.05,0,-0.18,0.81,9.97,-26.15,32.61,-126.28
00/00/2000,0:00:00,0:01:19,0,0,, ,,56.26,3.65,50.2,0,-0.04,0,-0.18,0.8,9.96,-25.94,32.55,-125.94
00/00/2000,0:00:00,0:01:19,0,0,, ,,56.26,3.69,50.22,0,-0.04,0,-0.2,0.8,9.94,-26.09,32.32,-126.47
00/00/2000,0:00:00,0:01:19,0,0,, ,,56.25,3.68,50.19,0,-0.04,0,-0.18,0.8,9.96,-25.31,32.72,-126.31
00/00/2000,0:00:00,0:01:19,0,0,, ,,56.24,3.64,50.19,0,-0.05,0,-0.17,0.81,9.97,-25.9,32.67,-126.18
00/00/2000,0:00:00,0:01:20,0,0,, ,,56.26,3.64,50.23,0,-0.04,0,-0.17,0.81,9.97,-25.8,32.26,-126.05
00/00/2000,0:00:00,0:01:20,0,0,, ,,56.28,3.61,50.24,0,-0.04,0,-0.18,0.81,9.97,-25.97,32.48,-125.93
00/00/2000,0:00:00,0:01:20,0,0,, ,,56.29,3.61,50.24,0,-0.04,0,-0.18,0.8,9.97,-26.03,32.46,-126.34
00/00/2000,0:00:00,0:01:20,0,0,, ,,56.31,3.65,50.25,0,-0.04,0,-0.2,0.8,9.91,-26.02,32.24,-126.19
00/00/2000,0:00:00,0:01:20,0,0,, ,,56.31,3.64,50.24,0,-0.04,0,-0.19,0.8,9.94,-26.53,32.51,-126.47
00/00/2000,0:00:00,0:01:20,0,0,, ,,56.29,3.67,50.22,0,-0.04,0,-0.19,0.79,9.95,-25.86,32.36,-126.53
00/00/2000,0:00:00,0:01:21,0,0,, ,,56.3,3.69,50.21,0,-0.04,0,-0.2,0.79,9.94,-26.41,32.32,-126.41
00/00/2000,0:00:00,0:01:21,0,0,, ,,56.32,3.75,50.22,0,-0.04,0,-0.22,0.79,9.93,-26.66,32.15,-126.18
00/00/2000,0:00:00,0:01:21,0,0,, ,,56.31,3.78,50.25,0,-0.04,0,-0.22,0.79,9.92,-26.35,32.17,-126.94
00/00/2000,0:00:00,0:01:21,0,0,, ,,56.3,3.72,50.29,0,-0.05,0,-0.17,0.81,9.97,-26.26,31.72,-126.59
00/00/2000,0:00:00,0:01:21,0,0,, ,,56.29,3.66,50.26,0,-0.05,0,-0.17,0.81,9.98,-25.69,32.21,-126.59
00/00/2000,0:00:00,0:01:21,0,0,, ,,56.31,3.69,50.31,0,-0.04,0,-0.18,0.8,9.96,-25.94,31.61,-126.32
00/00/2000,0:00:00,0:01:22,0,0,, ,,56.31,3.67,50.23,0,-0.04,0,-0.2,0.79,9.92,-26.16,32.46,-126.1
00/00/2000,0:00:00,0:01:22,0,0,, ,,56.31,3.66,50.23,0,-0.04,0,-0.19,0.81,9.94,-26.07,32.33,-125.81
00/00/2000,0:00:00,0:01:22,0,0,, ,,56.31,3.6,50.25,0,-0.04,0,-0.17,0.81,9.96,-26.19,32.34,-125.71
00/00/2000,0:00:00,0:01:22,0,0,, ,,56.32,3.57,50.24,0,-0.05,0,-0.18,0.82,9.97,-25.94,32.52,-126.07
00/00/2000,0:00:00,0:01:22,0,0,, ,,56.34,3.67,50.27,0,-0.04,0,-0.22,0.79,9.91,-26.22,31.94,-126.16
00/00/2000,0:00:00,0:01:22,0,0,, ,,56.34,3.69,50.22,0,-0.04,0,-0.21,0.79,9.91,-26.18,32.45,-125.86
00/00/2000,0:00:00,0:01:23,0,0,, ,,56.33,3.66,50.24,0,-0.04,0,-0.17,0.81,9.92,-25.56,32.21,-126.62
00/00/2000,0:00:00,0:01:23,0,0,, ,,56.32,3.67,50.23,0,-0.04,0,-0.19,0.79,9.93,-25.77,32.33,-125.84
00/00/2000,0:00:00,0:01:23,0,0,, ,,56.31,3.65,50.21,0,-0.04,0,-0.19,0.8,9.95,-26.07,32.65,-126.21
00/00/2000,0:00:00,0:01:23,0,0,, ,,56.3,3.67,50.16,0,-0.04,0,-0.21,0.79,9.93,-25.9,32.99,-126.94
00/00/2000,0:00:00,0:01:23,0,0,, ,,56.3,3.71,50.17,0,-0.04,0,-0.21,0.78,9.92,-26.26,32.39,-126.31
00/00/2000,0:00:00,0:01:23,0,0,, ,,56.28,3.66,50.16,0,-0.05,0,-0.18,0.81,9.96,-26,32.74,-126.15
00/00/2000,0:00:00,0:01:24,0,0,, ,,56.28,3.69,50.22,0,-0.04,0,-0.18,0.81,9.97,-25.49,32.29,-126.6
00/00/2000,0:00:00,0:01:24,0,0,, ,,56.26,3.68,50.23,0,-0.05,0,-0.18,0.8,9.97,-25.78,32.39,-127.08
00/00/2000,0:00:00,0:01:24,0,0,, ,,56.26,3.68,50.24,0,-0.04,0,-0.18,0.81,9.95,-25.81,32.34,-126.62
00/00/2000,0:00:00,0:01:24,0,0,, ,,56.26,3.68,50.22,0,-0.04,0,-0.19,0.8,9.92,-26.02,32.9,-127.3
00/00/2000,0:00:00,0:01:24,0,0,, ,,56.26,3.68,50.21,0,-0.04,0,-0.19,0.8,9.93,-25.49,32.75,-127.36
00/00/2000,0:00:00,0:01:24,0,0,, ,,56.26,3.65,50.21,0,-0.04,0,-0.17,0.81,9.95,-26.16,32.86,-126.91
00/00/2000,0:00:00,0:01:25,0,0,, ,,56.26,3.71,50.17,0,-0.04,0,-0.2,0.8,9.92,-25.9,32.55,-125.94
00/00/2000,0:00:00,0:01:25,0,0,, ,,56.27,3.74,50.13,0,-0.04,0,-0.21,0.79,9.92,-25.81,32.94,-126.72
00/00/2000,0:00:00,0:01:25,0,0,, ,,56.26,3.76,50.14,0,-0.04,0,-0.2,0.78,9.91,-25.83,32.52,-126.63
00/00/2000,0:00:00,0:01:25,0,0,, ,,56.26,3.79,50.16,0,-0.04,0,-0.2,0.8,9.92,-26.18,32.32,-126.45
00/00/2000,0:00:00,0:01:25,0,0,, ,,56.25,3.76,50.19,0,-0.04,0,-0.18,0.8,9.95,-25.87,32.3,-126.75
00/00/2000,0:00:00,0:01:25,0,0,, ,,56.25,3.75,50.23,0,-0.04,0,-0.19,0.81,9.94,-25.87,31.99,-126.28
00/00/2000,0:00:00,0:01:26,0,0,, ,,56.25,3.74,50.22,0,-0.04,0,-0.2,0.79,9.94,-26.43,32.14,-125.88
00/00/2000,0:00:00,0:01:26,0,0,, ,,56.25,3.74,50.2,0,-0.04,0,-0.21,0.79,9.92,-26.07,32.53,-126.24
00/00/2000,0:00:00,0:01:26,0,0,, ,,56.26,3.69,50.21,0,-0.04,0,-0.18,0.81,9.97,-26.15,32.49,-126.21
00/00/2000,0:00:00,0:01:26,0,0,, ,,56.25,3.65,50.24,0,-0.05,0,-0.17,0.81,9.96,-25.97,32.21,-126.4
00/00/2000,0:00:00,0:01:26,0,0,, ,,56.28,3.7,50.22,0,-0.04,0,-0.21,0.8,9.97,-25.94,32.51,-126.31
00/00/2000,0:00:00,0:01:26,0,0,, ,,56.28,3.71,50.21,0,-0.04,0,-0.2,0.8,9.92,-25.67,32.53,-126.34
00/00/2000,0:00:00,0:01:27,0,0,, ,,56.27,3.72,50.17,0,-0.04,0,-0.2,0.79,9.92,-25.9,32.45,-126.1
00/00/2000,0:00:00,0:01:27,0,0,, ,,56.26,3.66,50.15,0,-0.04,0,-0.18,0.81,9.95,-25.67,32.8,-125.46
00/00/2000,0:00:00,0:01:27,0,0,, ,,56.26,3.68,50.12,0,-0.04,0,-0.19,0.79,9.95,-25.83,32.77,-125.84
00/00/2000,0:00:00,0:01:27,0,0,, ,,56.25,3.71,50.08,0,-0.04,0,-0.21,0.78,9.92,-25.5,32.97,-125.83
00/00/2000,0:00:00,0:01:27,0,0,, ,,56.26,3.78,50.13,0,-0.04,0,-0.21,0.79,9.91,-25.71,32.3,-126.03
00/00/2000,0:00:00,0:01:27,0,0,, ,,56.24,3.73,50.17,0,-0.05,0,-0.17,0.81,9.97,-25.88,32.17,-125.49
00/00/2000,0:00:00,0:01:28,0,0,, ,,56.23,3.67,50.22,0,-0.05,0,-0.17,0.81,9.97,-25.59,32.14,-125.94
00/00/2000,0:00:00,0:01:28,0,0,, ,,56.22,3.62,50.19,0,-0.05,0,-0.17,0.81,9.96,-25.62,32.77,-125.64
00/00/2000,0:00:00,0:01:28,0,0,, ,,56.24,3.67,50.2,0,-0.04,0,-0.2,0.79,9.96,-25.67,32.45,-126.38
00/00/2000,0:00:00,0:01:28,0,0,, ,,56.26,3.72,50.23,0,-0.04,0,-0.2,0.79,9.94,-26.03,32.21,-126.62
00/00/2000,0:00:00,0:01:28,0,0,, ,,56.26,3.68,50.21,0,-0.04,0,-0.18,0.8,9.94,-25.78,32.64,-126.48
00/00/2000,0:00:00,0:01:28,0,0,, ,,56.27,3.67,50.24,0,-0.04,0,-0.18,0.81,9.96,-25.97,32.49,-127.74
00/00/2000,0:00:00,0:01:29,0,0,, ,,56.27,3.75,50.17,0,-0.04,0,-0.21,0.79,9.92,-25.4,32.71,-127.35
00/00/2000,0:00:00,0:01:29,0,0,, ,,56.27,3.7,50.13,0,-0.04,0,-0.18,0.8,9.96,-25.93,33.03,-126.91
00/00/2000,0:00:00,0:01:29,0,0,, ,,56.26,3.77,50.15,0,-0.04,0,-0.21,0.78,9.91,-25.64,32.43,-126.53
00/00/2000,0:00:00,0:01:29,0,0,, ,,56.25,3.75,50.12,0,-0.04,0,-0.19,0.79,9.92,-25.87,32.93,-126.16
00/00/2000,0:00:00,0:01:29,0,0,, ,,56.23,3.72,50.15,0,-0.04,0,-0.18,0.82,9.93,-25.55,32.89,-126.7
00/00/2000,0:00:00,0:01:29,0,0,, ,,56.23,3.77,50.16,0,-0.04,0,-0.2,0.8,9.93,-25.59,32.64,-127.45
00/00/2000,0:00:00,0:01:30,0,0,, ,,56.23,3.79,50.15,0,-0.04,0,-0.2,0.79,9.93,-25.53,32.43,-126.24
00/00/2000,0:00:00,0:01:30,0,0,, ,,56.23,3.84,50.16,0,-0.04,0,-0.21,0.78,9.92,-25.8,32.3,-126.95
00/00/2000,0:00:00,0:01:30,0,0,, ,,56.21,3.87,50.18,0,-0.04,0,-0.21,0.78,9.91,-25.86,32.34,-127.14
00/00/2000,0:00:00,0:01:30,0,0,, ,,56.21,3.74,50.18,0,-0.05,0,-0.17,0.81,9.96,-26.53,32.64,-126.4
00/00/2000,0:00:00,0:01:30,0,0,, ,,56.21,3.71,50.18,0,-0.04,0,-0.18,0.8,9.95,-25.96,32.45,-125.88
00/00/2000,0:00:00,0:01:30,0,0,, ,,56.23,3.73,50.17,0,-0.04,0,-0.2,0.79,9.94,-25.58,32.7,-126.37
00/00/2000,0:00:00,0:01:31,0,0,, ,,56.24,3.75,50.19,0,-0.04,0,-0.2,0.8,9.93,-25.52,32.48,-126.47
00/00/2000,0:00:00,0:01:31,0,0,, ,,56.25,3.7,50.17,0,-0.04,0,-0.18,0.81,9.95,-25.99,33.02,-127.07
00/00/2000,0:00:00,0:01:31,0,0,, ,,56.26,3.7,50.24,0,-0.04,0,-0.18,0.81,9.96,-26.02,32.23,-126.98
00/00/2000,0:00:00,0:01:31,0,0,, ,,56.26,3.72,50.2,0,-0.04,0,-0.21,0.8,9.97,-25.81,32.77,-126.94
00/00/2000,0:00:00,0:01:31,0,0,, ,,56.25,3.77,50.18,0,-0.04,0,-0.21,0.78,9.91,-25.48,32.29,-126.25
00/00/2000,0:00:00,0:01:31,0,0,, ,,56.25,3.78,50.19,0,-0.04,0,-0.2,0.78,9.91,-26.29,32.42,-127.01
00/00/2000,0:00:00,0:01:32,0,0,, ,,56.25,3.71,50.25,0,-0.04,0,-0.18,0.81,9.97,-26,32.24,-126.15
00/00/2000,0:00:00,0:01:32,0,0,, ,,56.27,3.67,50.23,0,-0.04,0,-0.18,0.81,9.94,-26.45,32.53,-126.34
00/00/2000,0:00:00,0:01:32,0,0,, ,,56.27,3.71,50.21,0,-0.04,0,-0.2,0.79,9.96,-25.87,32.43,-126.25
00/00/2000,0:00:00,0:01:32,0,0,, ,,56.25,3.72,50.15,0,-0.04,0,-0.21,0.8,9.94,-25.4,32.94,-126.22
00/00/2000,0:00:00,0:01:32,0,0,, ,,56.23,3.71,50.18,0,-0.05,0,-0.18,0.81,9.97,-26.03,32.7,-127.64
00/00/2000,0:00:00,0:01:32,0,0,, ,,56.23,3.66,50.19,0,-0.05,0,-0.17,0.82,9.97,-25.78,32.65,-126.63
00/00/2000,0:00:00,0:01:33,0,0,, ,,56.22,3.59,50.15,0,-0.05,0,-0.17,0.81,9.97,-25.67,32.94,-126
00/00/2000,0:00:00,0:01:33,0,0,, ,,56.22,3.61,50.18,0,-0.05,0,-0.18,0.8,9.96,-25.8,32.77,-126.88
00/00/2000,0:00:00,0:01:33,0,0,, ,,56.23,3.65,50.15,0,-0.04,0,-0.19,0.78,9.92,-26.13,32.99,-126.51
00/00/2000,0:00:00,0:01:33,0,0,, ,,56.24,3.66,50.15,0,-0.04,0,-0.19,0.8,9.94,-25.91,32.75,-125.65
00/00/2000,0:00:00,0:01:33,0,0,, ,,56.25,3.65,50.17,0,-0.04,0,-0.18,0.81,9.96,-26.03,32.72,-126.72
00/00/2000,0:00:00,0:01:33,0,0,, ,,56.24,3.7,50.15,0,-0.04,0,-0.2,0.79,9.93,-25.53,32.96,-126.79
00/00/2000,0:00:00,0:01:34,0,0,, ,,56.24,3.76,50.07,0,-0.04,0,-0.21,0.78,9.93,-25.61,33.08,-126.32
00/00/2000,0:00:00,0:01:34,0,0,, ,,56.24,3.81,50.07,0,-0.04,0,-0.22,0.78,9.91,-25.75,32.91,-126.6
00/00/2000,0:00:00,0:01:34,0,0,, ,,56.24,3.8,50.09,0,-0.04,0,-0.2,0.79,9.92,-26.35,32.75,-126.13
00/00/2000,0:00:00,0:01:34,0,0,, ,,56.23,3.76,50.13,0,-0.05,0,-0.18,0.81,9.93,-26.15,32.43,-126.53
00/00/2000,0:00:00,0:01:34,0,0,, ,,56.22,3.74,50.13,0,-0.04,0,-0.19,0.8,9.95,-25.87,32.59,-126.13
00/00/2000,0:00:00,0:01:34,0,0,, ,,56.21,3.77,50.12,0,-0.04,0,-0.2,0.78,9.94,-25.84,32.4,-125.42
00/00/2000,0:00:00,0:01:35,0,0,, ,,56.21,3.78,50.18,0,-0.04,0,-0.19,0.81,9.95,-25.87,32.53,-126.7
00/00/2000,0:00:00,0:01:35,0,0,, ,,56.21,3.71,50.2,0,-0.05,0,-0.17,0.8,9.96,-26.21,32.33,-126.51
00/00/2000,0:00:00,0:01:35,0,0,, ,,56.22,3.67,50.22,0,-0.04,0,-0.16,0.81,9.98,-26.12,32.37,-126.29
00/00/2000,0:00:00,0:01:35,0,0,, ,,56.24,3.65,50.23,0,-0.04,0,-0.18,0.81,9.97,-25.8,32.64,-126.85
00/00/2000,0:00:00,0:01:35,0,0,, ,,56.25,3.71,50.26,0,-0.04,0,-0.2,0.8,9.93,-26.15,32.17,-126.53
00/00/2000,0:00:00,0:01:35,0,0,, ,,56.25,3.68,50.23,0,-0.04,0,-0.19,0.8,9.93,-25.97,32.74,-126.75
00/00/2000,0:00:00,0:01:36,0,0,, ,,56.29,3.76,50.32,0,-0.04,0,-0.2,0.81,9.95,-25.58,31.63,-126.26
00/00/2000,0:00:00,0:01:36,0,0,, ,,56.29,3.71,50.31,0,-0.04,0,-0.18,0.81,9.97,-25.64,32.1,-127.02
00/00/2000,0:00:00,0:01:36,0,0,, ,,56.28,3.67,50.29,0,-0.05,0,-0.18,0.81,9.99,-25.59,32.14,-126.1
00/00/2000,0:00:00,0:01:36,0,0,, ,,56.29,3.72,50.24,0,-0.04,0,-0.21,0.78,9.93,-26.22,32.56,-126.22
00/00/2000,0:00:00,0:01:36,0,0,, ,,56.3,3.74,50.21,0,-0.04,0,-0.21,0.79,9.93,-26.28,32.56,-126.7
00/00/2000,0:00:00,0:01:36,0,0,, ,,56.28,3.68,50.21,0,-0.05,0,-0.18,0.8,9.98,-26.41,32.65,-127.02
00/00/2000,0:00:00,0:01:37,0,0,, ,,56.28,3.65,50.22,0,-0.04,0,-0.18,0.81,9.97,-26.13,32.32,-125.75
00/00/2000,0:00:00,0:01:37,0,0,, ,,56.29,3.67,50.24,0,-0.04,0,-0.19,0.8,9.97,-26.29,32.1,-126.37
00/00/2000,0:00:00,0:01:37,0,0,, ,,56.31,3.7,50.24,0,-0.04,0,-0.2,0.79,9.95,-26.47,32.08,-126.16
00/00/2000,0:00:00,0:01:37,0,0,, ,,56.3,3.71,50.28,0,-0.04,0,-0.19,0.81,9.96,-26.15,31.89,-126.67
00/00/2000,0:00:00,0:01:37,0,0,, ,,56.29,3.67,50.29,0,-0.05,0,-0.17,0.82,9.97,-25.69,32.02,-126.29
00/00/2000,0:00:00,0:01:37,0,0,, ,,56.29,3.62,50.27,0,-0.05,0,-0.17,0.81,9.98,-25.75,32.33,-126.54
00/00/2000,0:00:00,0:01:38,0,0,, ,,56.3,3.76,50.28,0,-0.04,0,-0.2,0.79,9.92,-25.8,32.11,-127.4
00/00/2000,0:00:00,0:01:38,0,0,, ,,56.29,3.72,50.22,0,-0.04,0,-0.19,0.8,9.97,-25.74,32.52,-126.09
00/00/2000,0:00:00,0:01:38,0,0,, ,,56.29,3.72,50.23,0,-0.04,0,-0.2,0.8,9.93,-26.03,32.36,-125.91
00/00/2000,0:00:00,0:01:38,0,0,, ,,56.29,3.72,50.25,0,-0.04,0,-0.19,0.81,9.96,-25.83,32.17,-126.13
00/00/2000,0:00:00,0:01:38,0,0,, ,,56.29,3.72,50.22,0,-0.04,0,-0.2,0.79,9.95,-25.99,32.32,-125.93
00/00/2000,0:00:00,0:01:38,0,0,, ,,56.28,3.76,50.18,0,-0.04,0,-0.21,0.78,9.94,-26.02,32.51,-126.76
00/00/2000,0:00:00,0:01:39,0,0,, ,,56.26,3.78,50.2,0,-0.04,0,-0.22,0.79,9.93,-26.15,32.52,-126.51
00/00/2000,0:00:00,0:01:39,0,0,, ,,56.25,3.79,50.18,0,-0.04,0,-0.21,0.8,9.93,-25.84,32.42,-126.22
00/00/2000,0:00:00,0:01:39,0,0,, ,,56.24,3.74,50.18,0,-0.04,0,-0.19,0.81,9.99,-26.06,32.45,-125.91
00/00/2000,0:00:00,0:01:39,0,0,, ,,56.25,3.72,50.22,0,-0.04,0,-0.19,0.81,9.98,-26.13,32.13,-126.02
00/00/2000,0:00:00,0:01:39,0,0,, ,,56.25,3.73,50.19,0,-0.04,0,-0.2,0.79,9.95,-25.96,32.53,-126.25
00/00/2000,0:00:00,0:01:39,0,0,, ,,56.25,3.71,50.21,0,-0.04,0,-0.18,0.81,9.96,-26.03,32.17,-125.58
00/00/2000,0:00:00,0:01:40,0,0,, ,,56.25,3.64,50.19,0,-0.04,0,-0.18,0.81,9.97,-25.93,32.71,-126.64
00/00/2000,0:00:00,0:01:40,0,0,, ,,56.24,3.6,50.19,0,-0.05,0,-0.16,0.81,9.98,-26.07,32.97,-127.2
00/00/2000,0:00:00,0:01:40,0,0,, ,,56.26,3.57,50.21,0,-0.04,0,-0.16,0.82,9.97,-25.88,32.72,-126.35
00/00/2000,0:00:00,0:01:40,0,0,, ,,56.27,3.64,50.18,0,-0.04,0,-0.2,0.79,9.93,-25.78,32.9,-126.47
00/00/2000,0:00:00,0:01:40,0,0,, ,,56.27,3.69,50.2,0,-0.04,0,-0.19,0.8,9.94,-25.65,32.51,-127
00/00/2000,0:00:00,0:01:40,0,0,, ,,56.27,3.7,50.2,0,-0.04,0,-0.19,0.8,9.96,-25.75,32.83,-127.55
00/00/2000,0:00:00,0:01:41,0,0,, ,,56.27,3.69,50.15,0,-0.04,0,-0.2,0.81,9.96,-25.39,32.93,-126.45
